"network","station","name","state","county","lat","lon","area.km2","date.start","date.end","station.keep","n.yrs","n.days.missing","n.days.total","n.days.noflow","prc.days.noflow","BFI.mean","BFI.max","BFI.max.mo","BFI.min","BFI.min.mo","BF.ann.mm_y","Q90.mm_d","Q7day.mm_d","Qmo.min.mm_d","Qmo.min.mo","Qann.mm_y","dQ_dt.slope"
"CANOPEX","05OH007","'SEINE RIVER NEAR STE. ANNE'","MB","Canada",49.64363861,-96.60903168,702.093,NA,NA,FALSE,0,NA,NA,NA,NA,NA,NA,NA,NA,NA,NA,NA,NA,NA,NA,NA,NA
"CANOPEX","09AA013","'TUTSHI RIVER AT OUTLET OF TUTSHI LAKE'","BC","Canada",59.94778061,-134.3325043,895.434,"1963-01-01","2010-12-31",TRUE,43,0,15706,0,0,0.729512577129086,1,3,0.169209387510815,6,280.685451495587,0.2924,0.269750166112957,0.289688759689922,4,565.227832745717,1.5289508558412
"CANOPEX","09AE003","'SWIFT RIVER NEAR SWIFT RIVER'","BC","Canada",59.93056107,-131.7677765,3119.59,"1959-01-01","2010-12-31",TRUE,48,0,17532,0,0,0.738995461156364,0.999778598232126,2,0.229338012527955,6,236.611620750783,0.25905,0.248465476190476,0.266067338709677,3,479.498605162242,1.79530261503544
"CANOPEX","07NB008","'DOG RIVER NEAR FITZGERALD'","AB","Canada",59.87638855,-111.5208282,2002.02,"1974-01-01","1994-12-31",FALSE,18,0,6573,58,0.88,0.716485909303862,0.911179710021995,2,0.219096621625547,5,18.3133428847314,0.0047,0.0131920634920635,0.0376132616487455,3,42.647175443787,1.29796462826559
"CANOPEX","09AA014","'FANTAIL RIVER AT OUTLET OF FANTAIL LAKE'","YT","Canada",59.59444046,-134.390564,753.443,"1961-01-01","1993-12-31",TRUE,30,0,10958,0,0,0.656370529360554,0.997376408300334,2,0.155174143086378,6,341.106297745574,0.1399,0.13735619047619,0.169641444444444,4,936.478108962264,1.41124431118204
"CANOPEX","09AE004","'GLADYS RIVER AT OUTLET OF GLADYS LAKE'","YT","Canada",59.90555954,-132.9138947,1699.95,"1961-01-01","1993-12-31",TRUE,32,0,11688,0,0,0.747403474238295,0.998083942153542,2,0.179994389728217,6,144.10656435114,0.1814,0.174442857142857,0.1881790625,4,275.384739159292,1.66293591611381
"CANOPEX","07LC002","'CHIPMAN RIVER ABOVE BLACK LAKE'","SK","Canada",59.31943893,-105.3027802,1008.25,"1976-01-01","1995-05-31",FALSE,19,0,6726,0,0,0.812518694163354,0.995482280538059,3,0.460910160318247,6,290.817907375004,0.4627,0.487895488721804,0.535393859649123,4,400.741590857264,1.65593235169684
"CANOPEX","10AC004","'BLUE RIVER NEAR THE MOUTH'","BC","Canada",59.7583313,-129.1277771,1542.13,"1965-01-01","1995-12-31",TRUE,31,0,11322,0,0,0.727723740872426,0.999717658166747,3,0.221285337450986,6,181.578804354933,0.2017,0.185446082949309,0.204645265348595,3,372.968746890323,1.68651432266148
"CANOPEX","03HA009","'HAMELIN (RIVIERE) PRES DE LA RIVIERE ARNAUD (PAYNE)-1'","QC","Canada",60,-71.75,3820.53,"1963-01-01","1978-12-31",FALSE,16,0,5844,0,0,0.707740537544274,1,3,0.141290853518311,6,191.220209649618,0.08091,0.0794044642857143,0.087850625,4,448.975313661504,1.27648140868335
"CANOPEX","10AC005","'COTTONWOOD RIVER ABOVE BASS CREEK'","BC","Canada",59.11888885,-129.8230591,1046.51,"1964-01-01","2010-12-31",TRUE,47,0,17167,0,0,0.725723906949443,1,2,0.21525332182684,6,235.475727000978,0.1981,0.179125835866261,0.206155868222375,3,557.838495751089,1.47695512466372
"CANOPEX","10BE007","'TROUT RIVER AT KILOMETRE 783.7 ALASKA HIGHWAY'","BC","Canada",59.33597183,-125.9402466,1164.85,"1970-10-01","2010-12-31",TRUE,40,0,14337,0,0,0.776257210852302,0.998612969847567,3,0.275742792431605,6,262.599956476137,0.422,0.407172857142857,0.43484888337469,3,443.119682293499,1.92750993940205
"CANOPEX","10AC003","'DEASE RIVER AT OUTLET OF DEASE LAKE'","BC","Canada",58.81388855,-130.0833282,1516.86,"1956-10-01","1984-12-31",TRUE,25,0,8858,0,0,0.756948368388592,1,3,0.223629039295469,6,153.394040027213,0.1709,0.156056,0.16667125,4,321.656199361357,1.43391276714103
"CANOPEX","10BE004","'TOAD RIVER ABOVE NONDA CREEK'","BC","Canada",58.85496902,-125.3826065,2442.8,"1961-07-01","2010-12-31",TRUE,48,0,17351,0,0,0.711126960842809,0.999678708757633,2,0.197973693976473,6,256.910127413664,0.2773,0.261502083333333,0.280891146190803,3,556.436074659275,1.63855557890577
"CANOPEX","08CD001","'TUYA RIVER NEAR TELEGRAPH CREEK'","BC","Canada",58.07221985,-130.824173,3413.03,"1965-01-01","2010-12-31",TRUE,44,0,16071,0,0,0.74714827396757,0.999165623943719,2,0.162646960355587,5,134.902317112596,0.1468,0.140986688311688,0.160232551319648,3,339.907744368463,1.65494973477098
"CANOPEX","07MA003","'DOUGLAS RIVER NEAR CLUFF LAKE'","SK","Canada",58.32221985,-109.7861099,1678.11,"1975-08-16","2010-12-31",TRUE,35,15,12572,0,0,0.843023599232983,0.98180372768636,2,0.516032098432904,5,137.927451130932,0.2667,0.261816326530612,0.312798671726755,3,180.623859229791,2.14428689994326
"CANOPEX","07LB002","'WATERFOUND RIVER BELOW THERIAU LAKE'","SK","Canada",58.3861084,-104.6083298,2935.46,"1975-01-01","2010-12-31",TRUE,35,0,12784,0,0,0.917362215123935,0.990230406334722,3,0.805757337607675,6,206.930009591206,0.4533,0.471268571428571,0.534801198156682,3,229.002008606096,0
"CANOPEX","08CG003","'ISKUT RIVER AT OUTLET OF KINASKAN LAKE'","BC","Canada",57.53055954,-130.1791687,1291.04,"1965-01-01","1995-12-31",TRUE,29,0,10591,0,0,0.70499208613079,0.992605771620063,2,0.21250567704172,6,209.557347790567,0.2222,0.202756157635468,0.240166184649611,3,420.420536742265,1.35397854703992
"CANOPEX","07EA002","'KWADACHA RIVER NEAR WARE'","BC","Canada",57.45000076,-125.6374969,2322.33,"1962-01-01","1998-12-31",TRUE,33,0,12054,0,0,0.682761168539526,1,2,0.224107076592734,6,301.991287212993,0.2348,0.213946753246753,0.232578005865103,3,690.908113465848,1.40146782137796
"CANOPEX","06FD002","'DEER RIVER NORTH OF BELCHER'","MB","Canada",58.01353073,-94.19805908,1848.56,"1978-01-01","2010-12-31",TRUE,20,0,7306,0,0,0.717590132305506,0.999469401169305,3,0.31186018617058,5,83.4029046879708,0.02055,0.024665,0.0291122580645161,3,261.903528816254,1.51851393987787
"CANOPEX","07CD006","'CLEARWATER RIVER AT OUTLET OF LLOYD LAKE'","SK","Canada",57.33055878,-108.7638931,4163.15,"1974-01-01","1995-05-31",TRUE,22,0,7821,0,0,0.86769960341951,0.997890697747962,2,0.528337138496346,5,144.157230428194,0.3051,0.300531168831169,0.321945747800586,3,174.284263944831,0.325929465631907
"CANOPEX","06FB002","'LITTLE BEAVER RIVER NEAR THE MOUTH'","MB","Canada",57.65327835,-95.66385651,4086.57,"1974-01-01","2010-12-31",TRUE,35,0,12784,0,0,0.70428831773662,0.997852662562175,2,0.262824603276135,5,86.4233512916648,0.0302,0.0327926530612245,0.0440071889400922,3,230.698077700419,1.42068916796378
"CANOPEX","07EA007","'AKIE RIVER NEAR THE 760 M CONTOUR'","BC","Canada",57.1911087,-124.8988876,1619.2,"1981-01-01","2010-12-31",TRUE,27,0,9861,0,0,0.698752807844839,0.999983878028689,2,0.225585400113459,5,258.816900724932,0.2129,0.186788888888889,0.211750059737157,3,606.538325721785,1.79040764339554
"CANOPEX","08CC001","'KLAPPAN RIVER NEAR TELEGRAPH CREEK'","BC","Canada",57.90000153,-129.7038879,3366.9,"1965-01-01","1995-12-31",TRUE,31,0,11322,0,0,0.688023175334246,0.997636198159938,2,0.198872081252602,6,289.049571861605,0.2325,0.220820737327189,0.247459833506764,3,677.681995148387,1.54279469585081
"CANOPEX","06DA005","'WHEELER RIVER BELOW RUSSELL LAKE'","SK","Canada",57.47777939,-104.9972229,2725.36,"1973-10-14","2010-12-31",TRUE,35,13,12510,0,0,0.889882134004364,0.983219453007532,3,0.682818654813234,5,173.181795188352,0.3551,0.377492244897959,0.445440132827324,3,199.68741355481,1.91154051947733
"CANOPEX","08CG005","'MORE CREEK NEAR THE MOUTH'","BC","Canada",57.0408287,-130.4013824,856.518,"1974-01-01","1994-12-31",FALSE,19,0,6939,0,0,0.660997035126606,0.995909900681394,2,0.231740688889184,6,762.445917520119,0.5316,0.474002255639098,0.605101697792869,3,1823.19834387274,1.68776666586298
"CANOPEX","07DA008","'MUSKEG RIVER NEAR FORT MACKAY'","AB","Canada",57.19120026,-111.570137,1397.15,"1974-01-01","1986-12-31",FALSE,13,0,4748,0,0,0.688175322802723,0.999222491603544,2,0.332900564436826,5,28.5637678976317,0.0143,0.0120967032967033,0.018250136239782,2,81.7877884300985,1.32673240906169
"CANOPEX","10CB001","'SIKANNI CHIEF RIVER NEAR FORT NELSON'","BC","Canada",57.23416901,-122.6941681,2125.09,"1960-01-01","2010-12-31",TRUE,49,0,17897,0,0,0.70704667105526,0.994661402733128,2,0.256678769832479,6,167.965346720652,0.1691,0.157025072886297,0.179946280447663,3,380.795894331721,1.75668513802686
"CANOPEX","03MB001","'FALSE (RIVIERE)'","QC","Canada",57.67082977,-68.26999664,2180.75,"1973-01-01","1991-12-31",FALSE,16,0,5843,0,0,0.746559442589448,1,3,0.307053193643716,6,186.189226869479,0.12,0.123855357142857,0.13553,4,445.828231998337,1.6326753400434
"CANOPEX","05UH002","'WEIR RIVER ABOVE THE MOUTH'","MB","Canada",57.02305984,-93.45305634,2179.03,"1978-01-01","2010-12-31",TRUE,26,0,9497,0,0,0.721211567823768,0.998819577601834,3,0.260204532248583,5,86.6793405552954,0.0348,0.0305697802197802,0.0386289081885856,3,230.972190457875,1.60790101687478
"CANOPEX","07EA004","'INGENIKA RIVER ABOVE SWANNELL RIVER'","BC","Canada",56.72999954,-125.1029968,3964.69,"1978-01-01","2010-12-31",TRUE,33,0,12053,0,0,0.730973699474433,0.999773991832674,2,0.222354728462216,6,202.696730505958,0.2245,0.197552380952381,0.228091593352884,3,464.713908869814,1.65955623654761
"CANOPEX","07FC003","'BLUEBERRY RIVER BELOW AITKEN CREEK'","BC","Canada",56.67721939,-121.2208328,1701.86,"1965-01-01","2010-12-31",TRUE,44,0,16070,357,2.22,0.682858060059102,0.967146111422116,12,0.214979335514688,4,17.0778729504061,0.0021,0.00171038961038961,0.0034341384863124,2,97.4236558776168,1.32751734005917
"CANOPEX","07EB002","'OSPIKA RIVER ABOVE ALEY CREEK'","BC","Canada",56.52833176,-123.9333267,2058.21,"1981-01-01","2010-12-31",TRUE,30,0,10957,0,0,0.717895818106263,0.998314180992667,2,0.198306022057396,5,258.610913792072,0.2519,0.22813,0.250422688172043,3,621.538724380165,1.78010490087061
"CANOPEX","05UG001","'LIMESTONE RIVER NEAR BIRD'","MB","Canada",56.51258087,-94.21617126,3146.5,"1963-06-13","2010-12-31",TRUE,35,12,12633,0,0,0.738230873100599,0.998840615664614,2,0.287398851052433,5,84.7988896710615,0.053,0.0531440816326531,0.0630728652751423,3,212.699497117505,1.73265267942848
"CANOPEX","07FA005","'GRAHAM RIVER ABOVE COLT CREEK'","BC","Canada",56.45861053,-122.3561096,2226.27,"1981-01-01","2010-12-31",TRUE,28,0,10226,0,0,0.723556531977157,0.998724345728946,2,0.259329991709872,6,150.112495583887,0.1708,0.156332142857143,0.183712442396313,3,341.045998200723,1.79112535577144
"CANOPEX","06BD001","'HAULTAIN RIVER ABOVE NORBERT RIVER'","SK","Canada",56.24443817,-106.5611115,3697.8,"1969-01-01","2010-12-31",TRUE,40,0,14610,0,0,0.783600446323309,0.99684873164269,2,0.371694804497258,5,102.407097002891,0.1561,0.149428928571429,0.175293790322581,3,157.046173561947,1.89039219517589
"CANOPEX","08DD001","'UNUK RIVER NEAR STEWART'","BC","Canada",56.35139084,-130.6916656,1425.79,"1967-01-01","1996-03-31",TRUE,30,0,10683,0,0,0.659756239800139,0.963941972371893,2,0.29134102413969,6,1083.04296990466,0.7878,0.65855,1.04810322580645,3,2315.25005676318,1.48512756914851
"CANOPEX","07CD004","'HANGINGSTONE RIVER AT FORT MCMURRAY'","AB","Canada",56.70896912,-111.3563766,870.927,"1970-01-01","1986-12-31",FALSE,16,0,5844,0,0,0.690147657120381,1,2,0.326523875679819,4,49.4861762302224,0.0208,0.0179151785714286,0.0227696902654867,2,144.043632577434,1.61593597387191
"CANOPEX","07EC003","'MESILINKA RIVER ABOVE GOPHERHOLE CREEK'","BC","Canada",56.24388885,-124.6433334,2852.1,"1976-01-01","2010-12-31",TRUE,35,0,12784,0,0,0.721216604283547,1,2,0.223995453707196,6,211.25697505829,0.2178,0.197568163265306,0.223488294930876,3,494.901761961577,1.72885440622853
"CANOPEX","06EA007","'PAGATO RIVER AT OUTLET OF PAGATO LAKE'","SK","Canada",56.11193848,-102.5097198,904.763,"1973-10-10","1995-06-30",TRUE,23,9,7943,203,2.56,0.727611631019332,0.904885715402249,3,0.43812172779967,5,95.8253301138994,0.1366,0.125641614906832,0.166380498533724,3,163.239447171928,1.17061892074562
"CANOPEX","07FD008","'HINES CREEK NEAR FAIRVIEW'","AB","Canada",56.06806183,-118.6597214,1165.2,NA,NA,FALSE,0,NA,NA,NA,NA,NA,NA,NA,NA,NA,NA,NA,NA,NA,NA,NA,NA
"CANOPEX","05UH001","'ANGLING RIVER NEAR BIRD'","MB","Canada",56.67694092,-93.64111328,1511.8,"1979-01-01","2010-12-31",TRUE,22,23,8036,0,0,0.707103757058034,1,2,0.237791907065322,5,81.8368645281664,0.0282,0.028861038961039,0.0384193548387097,3,240.001149776336,1.43039165865232
"CANOPEX","05UF004","'KETTLE RIVER NEAR GILLAM'","MB","Canada",56.34156036,-94.69664764,1092.77,"1966-01-01","2010-12-31",TRUE,39,0,14244,1,0.01,0.698491036632607,0.99956666022357,2,0.209252012819543,5,147.195158561998,0.056,0.0424029304029304,0.0620736145574855,3,379.673640543562,1.27742000985331
"CANOPEX","07EC004","'OSILINKA RIVER NEAR END LAKE'","BC","Canada",56.12667084,-124.8013916,1856.24,"1981-01-01","2010-12-31",TRUE,30,0,10957,0,0,0.731238817277246,1,2,0.202919287450197,5,246.229063464847,0.2746,0.252942380952381,0.277361935483871,3,608.520546170799,1.71331403063526
"CANOPEX","05TF002","'FOOTPRINT RIVER ABOVE FOOTPRINT LAKE'","MB","Canada",55.93111038,-98.88639069,616.578,"1978-01-01","2010-12-31",TRUE,21,9,7670,0,0,0.77217998321672,0.973170941056747,3,0.420889703620179,5,96.5919980162811,0.1167,0.128242857142857,0.195484792626728,3,159.989311941873,1.34703624178716
"CANOPEX","06CE001","'FOSTER RIVER ABOVE CHURCHILL RIVER'","SK","Canada",55.82500076,-105.7555618,4329.75,"1973-01-01","1994-12-31",TRUE,22,0,8035,0,0,0.809543255357672,0.999581135702382,3,0.400559740759164,5,89.1552912520916,0.1333,0.144652597402597,0.161097653958944,3,137.905085397453,2.20735691816305
"CANOPEX","07FB008","'MOBERLY RIVER NEAR FORT ST. JOHN'","BC","Canada",56.09305954,-121.3469391,1439.86,"1980-01-01","2010-12-31",TRUE,31,0,11323,0,0,0.691113258191175,0.986452167537942,1,0.161825975195951,5,89.5664161262957,0.063,0.0580930875576037,0.0897353881278539,2,248.216932803064,1.48096704043116
"CANOPEX","07JA003","'WILLOW RIVER NEAR WABASCA'","AB","Canada",55.91667175,-113.9213028,1059.86,NA,NA,FALSE,0,NA,NA,NA,NA,NA,NA,NA,NA,NA,NA,NA,NA,NA,NA,NA,NA
"CANOPEX","07FD006","'SADDLE RIVER NEAR WOKING'","AB","Canada",55.64434814,-118.7002335,486.586,NA,NA,FALSE,0,NA,NA,NA,NA,NA,NA,NA,NA,NA,NA,NA,NA,NA,NA,NA,NA
"CANOPEX","08EB004","'KISPIOX RIVER NEAR HAZELTON'","BC","Canada",55.43360901,-127.7141724,1836.81,"1967-01-01","2010-12-31",TRUE,44,0,16071,0,0,0.69351007940165,0.985114884202656,1,0.249154894617315,5,347.957450834461,0.2799,0.248144805194805,0.361046741753821,2,774.598915587289,1.65185790030214
"CANOPEX","06BA002","'DILLON RIVER BELOW DILLON LAKE'","SK","Canada",55.70972061,-109.3855591,2317.48,"1973-01-01","2010-12-31",TRUE,37,0,13514,0,0,0.688784768381514,0.990695037431574,2,0.275981798895486,5,55.3589512646349,0.0347,0.0310610038610039,0.0445336530078466,3,115.830159105134,1.04960028023413
"CANOPEX","07FD007","'POUCE COUPE RIVER BELOW HENDERSON CREEK'","BC","Canada",55.86471939,-120.0294418,2975.59,"1971-04-15","2010-12-31",TRUE,36,14,13059,103,0.79,0.698603343323674,0.962746942376299,2,0.203933649173044,4,12.274600305958,0.0016,0.00200079365079365,0.00673852534562212,1,67.5216701434715,1.3221740885243
"CANOPEX","05TG002","'TAYLOR RIVER NEAR THOMPSON'","MB","Canada",55.48984909,-98.19207764,860.003,"1972-01-01","2010-12-31",TRUE,32,14,11689,0,0,0.715830182444887,0.978330760708392,3,0.242252256306669,5,77.8419094128286,0.0523,0.0424424107142857,0.0845639112903226,3,185.58732676314,1.52028161075543
"CANOPEX","07GD002","'BEAVERTAIL CREEK NEAR HYTHE'","AB","Canada",55.31616974,-119.6425476,663.846,NA,NA,FALSE,0,NA,NA,NA,NA,NA,NA,NA,NA,NA,NA,NA,NA,NA,NA,NA,NA
"CANOPEX","07ED001","'NATION RIVER NEAR FORT ST. JAMES'","BC","Canada",55.20000076,-124.2333298,4130.88,"1967-01-01","1995-12-31",TRUE,28,0,10227,0,0,0.749150504963002,0.999477845247933,2,0.185141834899845,5,175.89796481389,0.228,0.215092346938775,0.247916935483871,3,435.050566118837,1.42531865683832
"CANOPEX","07FD001","'KISKATINAW RIVER NEAR FARMINGTON'","BC","Canada",55.9569397,-120.5625,3459.38,"1966-01-01","2010-12-31",TRUE,45,0,16436,9,0.05,0.708774119351713,0.985041780417749,1,0.27860668024458,5,27.1531071972989,0.012,0.0112403174603175,0.0208082612116444,2,95.6326268694816,1.37414110847809
"CANOPEX","07FB003","'SUKUNKA RIVER NEAR THE MOUTH'","BC","Canada",55.54278183,-121.6244431,2591.62,"1977-08-05","2010-12-31",TRUE,34,4,12206,0,0,0.714783850868519,0.996029480841624,2,0.16631885083876,5,244.959628411232,0.2277,0.213069327731092,0.273812446351931,2,666.083147678399,1.73411618959667
"CANOPEX","06BB004","'KEELEY RIVER AT OUTLET OF KEELEY LAKE'","SK","Canada",54.91833115,-108.0536118,948.943,"1973-01-01","1995-06-30",TRUE,21,0,7486,0,0,0.791527370884766,0.927313928586893,2,0.574888757878349,5,59.1561027979546,0.052,0.0920884353741497,0.136117511520737,3,82.5612258178752,1.27141322287727
"CANOPEX","08EG006","'KITSUMKALUM RIVER NEAR TERRACE'","BC","Canada",54.5819397,-128.6602783,2267.08,NA,NA,FALSE,0,NA,NA,NA,NA,NA,NA,NA,NA,NA,NA,NA,NA,NA,NA,NA,NA
"CANOPEX","03EC001","'DENYS (RIVIERE) PRES DE LA GRANDE RIVIERE DE LA BALEINE'","QC","Canada",55.0083313,-77.06388855,4389.08,"1962-01-01","1993-09-21",TRUE,32,9,11596,0,0,0.74754759044386,1,3,0.343805083930622,5,276.860195633993,0.2953,0.277539732142857,0.31307872983871,3,498.709624426576,1.52311975111746
"CANOPEX","07FB006","'MURRAY RIVER ABOVE WOLVERINE RIVER'","BC","Canada",55.06528091,-121.0124969,2323.32,"1978-01-01","2010-12-31",TRUE,33,0,12053,0,0,0.71970364854213,0.999789845748314,2,0.198661703616942,5,345.548091248781,0.3421,0.318177489177489,0.383194527896996,2,773.783134659904,1.447198587203
"CANOPEX","05TB002","'GRASS RIVER AT WEKUSKO FALLS'","MB","Canada",54.78889084,-99.96943665,3115.2,"1958-01-01","1991-12-31",TRUE,34,0,12418,0,0,0.8478450246963,0.974360702086123,3,0.632308649750943,6,90.7853807266233,0.1273,0.175384033613445,0.221460815939279,3,113.953470416667,1.39583700161918
"CANOPEX","07EE007","'PARSNIP RIVER ABOVE MISINCHINKA RIVER'","BC","Canada",55.07806015,-122.9047165,4691.29,"1967-10-13","2010-12-31",TRUE,43,12,15433,0,0,0.718013227301371,0.983625265356403,2,0.205360282070369,5,421.988540146343,0.4752,0.428589700996678,0.581267059814659,2,985.775603491061,1.61925340719443
"CANOPEX","06AG002","'DORE RIVER NEAR THE MOUTH'","SK","Canada",54.93027878,-107.7436066,2919.4,"1972-01-01","2010-12-31",TRUE,36,0,13150,134,1.02,0.698180745881984,0.930906097827256,1,0.310632848245805,5,19.2784638898778,0.0021,0.0214944444444444,0.0393328853046595,1,33.702295279415,0.59542896613876
"CANOPEX","07BC006","'DAPP CREEK AT HIGHWAY NO. 44'","AB","Canada",54.30820084,-113.8488998,585.521,NA,NA,FALSE,0,NA,NA,NA,NA,NA,NA,NA,NA,NA,NA,NA,NA,NA,NA,NA,NA
"CANOPEX","07GG001","'WASKAHIGAN RIVER NEAR THE MOUTH'","AB","Canada",54.75201035,-117.2057037,1003.85,"1971-01-01","2010-12-31",TRUE,40,0,14610,59,0.4,0.703960009255226,0.963194354382298,1,0.245257891253068,4,42.4626675058382,0.0258,0.0211707142857143,0.0342382300884956,2,144.666225442478,1.54217363114748
"CANOPEX","05KF001","'BALLANTYNE RIVER ABOVE BALLANTYNE BAY'","SK","Canada",54.56111145,-103.9416733,1838.22,"1973-01-01","1995-12-31",TRUE,22,0,8035,0,0,0.70979355711897,0.991752023956185,2,0.269408227714478,5,62.3482532808947,0.0475,0.0432,0.065362962962963,2,141.564444781145,1.32868124852481
"CANOPEX","07EE010","'PACK RIVER AT OUTLET OF MCLEOD LAKE'","BC","Canada",54.99583054,-123.0355606,3576.42,"1981-01-01","2010-12-31",TRUE,30,0,10957,0,0,0.739337377926193,0.973306018666593,9,0.233953463743467,5,166.178348350342,0.2464,0.211039523809524,0.298230333333333,9,377.037155261708,1.37890706556636
"CANOPEX","07GG003","'IOSEGUN RIVER NEAR LITTLE SMOKY'","AB","Canada",54.74517822,-117.1521606,1909.96,NA,NA,FALSE,0,NA,NA,NA,NA,NA,NA,NA,NA,NA,NA,NA,NA,NA,NA,NA,NA
"CANOPEX","08EE013","'BUCK CREEK AT THE MOUTH'","BC","Canada",54.39778137,-126.6511078,571.748,"1973-01-01","2010-12-31",TRUE,37,0,13513,7,0.05,0.707495491608579,0.98053953504026,1,0.153640952817138,5,63.9449983278864,0.0452,0.0387733590733591,0.0690240421455939,2,238.861778585482,1.53074469572494
"CANOPEX","08KC001","'SALMON RIVER NEAR PRINCE GEORGE'","BC","Canada",54.0961113,-122.6780624,4250.59,"1953-04-01","2007-12-31",TRUE,48,10,17441,0,0,0.729125395332098,0.949219847298392,2,0.250814569643409,5,79.3304143212645,0.0939,0.0854142857142857,0.156369440559441,9,216.685498662992,1.37435239174689
"CANOPEX","08EF005","'ZYMOETZ RIVER ABOVE O.K. CREEK'","BC","Canada",54.48332977,-128.3305664,2879.41,"1963-09-04","2010-12-31",TRUE,48,3,17289,0,0,0.705868954774034,0.961376686091901,2,0.253464916503895,5,552.386568883718,0.4981,0.418383928571429,0.683731475903614,2,1152.44310710268,1.57128542958746
"CANOPEX","05EC004","'NAMEPI CREEK NEAR THE MOUTH'","AB","Canada",54.02972031,-112.8455582,737.663,NA,NA,FALSE,0,NA,NA,NA,NA,NA,NA,NA,NA,NA,NA,NA,NA,NA,NA,NA,NA
"CANOPEX","08FF001","'KITIMAT RIVER BELOW HIRSCH CREEK'","BC","Canada",54.04858017,-128.6903534,1944.58,"1967-01-01","2010-12-31",TRUE,44,0,16071,0,0,0.719476296913701,0.846934081048568,2,0.442798249956706,5,1127.52538299672,1.364,0.946557467532468,2.67022778592375,3,2126.96215082462,1.75753738944781
"CANOPEX","03PB002","'NASKAUPI RIVER BELOW NASKAUPI LAKE'","NL","Canada",54.13191986,-61.42681122,4624.17,"1978-01-01","2010-12-31",TRUE,29,0,10592,0,0,0.762013787803488,0.998378839542764,2,0.335089965106486,5,313.894357984982,0.3774,0.359367487684729,0.409102780867631,3,613.858234217507,1.68366741919119
"CANOPEX","05KE010","'WHITE GULL CREEK AT HIGHWAY NO. 106'","SK","Canada",53.86497116,-104.6196365,626.095,"1994-01-01","2010-12-31",FALSE,17,0,6209,0,0,0.704893245985675,0.988717238098222,2,0.33746809521792,5,42.9622178524776,0.02838,0.026763025210084,0.0387472916666667,2,98.8230653431373,1.44445573755347
"CANOPEX","08JB002","'STELLAKO RIVER AT GLENANNAN'","BC","Canada",54.00753021,-125.0088882,3883.62,"1951-01-01","2010-12-31",TRUE,59,0,21549,0,0,0.758593675271654,0.986273800838289,3,0.31674095561941,5,91.392304397806,0.1208,0.120434382566586,0.15874581738655,3,168.442434282866,1.40801403125012
"CANOPEX","08KB003","'MCGREGOR RIVER AT LOWER CANYON'","BC","Canada",54.23117065,-121.6687469,4609.31,"1961-01-01","2010-12-31",TRUE,50,0,18262,0,0,0.703979623325366,0.98397304504982,2,0.238344357914839,5,706.480622841034,0.6055,0.553258857142857,0.744070750708215,2,1466.44153501983,1.59758055991055
"CANOPEX","08ED001","'NANIKA RIVER AT OUTLET OF KIDPRICE LAKE'","BC","Canada",53.93056107,-127.4527817,703.828,"1951-01-01","2010-12-31",TRUE,38,0,13879,0,0,0.718535311601898,0.992514136306845,3,0.238646651440856,5,633.04348240854,0.5831,0.55784022556391,0.687328268251273,3,1289.63363680532,1.64191093056223
"CANOPEX","08FE003","'KEMANO RIVER ABOVE POWERHOUSE TAILRACE'","BC","Canada",53.56943893,-127.9444427,536.577,"1972-01-01","2010-12-31",TRUE,39,0,14245,0,0,0.676860112254813,0.915948759150839,2,0.310339775777127,5,1233.44103250112,0.8164,0.617512087912088,1.57171451905626,2,2685.19174243101,1.4065779093496
"CANOPEX","05EF004","'MONNERY RIVER NEAR PARADISE HILL'","SK","Canada",53.54111099,-109.5272217,891.78,NA,NA,FALSE,0,NA,NA,NA,NA,NA,NA,NA,NA,NA,NA,NA,NA,NA,NA,NA,NA
"CANOPEX","06AD010","'MEADOW RIVER BELOW MEADOW LAKE'","SK","Canada",54.1361084,-108.3944397,3278.45,"1958-04-01","1995-12-31",FALSE,18,0,6484,756,11.66,0.574346351474954,1.05463372601461,11,0.230027997885115,5,8.38983312448885,0,0.00164206349206349,0.00327458333333333,2,23.8628144771242,0.841825986203967
"CANOPEX","08JA005","'TAHTSA RIVER NEAR OOTSA LAKE'","BC","Canada",53.75556183,-126.6999969,1389.08,NA,NA,FALSE,0,NA,NA,NA,NA,NA,NA,NA,NA,NA,NA,NA,NA,NA,NA,NA,NA
"CANOPEX","07BB003","'LOBSTICK RIVER NEAR STYAL'","AB","Canada",53.61249924,-115.1055603,1520.39,"1956-01-01","1986-12-31",TRUE,31,0,11323,326,2.88,0.705040433583777,0.818120251387449,2,0.401034786068226,4,50.536120606045,0.02646,0.0350230414746544,0.0798376712328767,2,94.1017096332302,0.873828047453637
"CANOPEX","05KE006","'BISSET CREEK NEAR CHOICELAND'","SK","Canada",53.45306015,-104.5686111,589.902,NA,NA,FALSE,0,NA,NA,NA,NA,NA,NA,NA,NA,NA,NA,NA,NA,NA,NA,NA,NA
"CANOPEX","05DE003","'WABAMUN CREEK NEAR DUFFIELD'","AB","Canada",53.46166992,-114.3666687,525.588,NA,NA,FALSE,0,NA,NA,NA,NA,NA,NA,NA,NA,NA,NA,NA,NA,NA,NA,NA,NA
"CANOPEX","04DC002","'SHAMATTAWA RIVER AT OUTLET OF SHAMATTAWA LAKE'","ON","Canada",54.28974915,-85.6515274,4634.5,"1968-01-01","2010-12-31",TRUE,37,0,13515,0,0,0.712145258092413,1,2,0.18568942985938,5,101.724133997853,0.0492,0.046054054054054,0.0540434176111595,3,274.345550741564,1.5109496493769
"CANOPEX","05GG010","'GARDEN RIVER NEAR HENRIBOURG'","SK","Canada",53.39389038,-105.6108322,860.607,NA,NA,FALSE,0,NA,NA,NA,NA,NA,NA,NA,NA,NA,NA,NA,NA,NA,NA,NA,NA
"CANOPEX","08JA003","'WHITESAIL RIVER NEAR OOTSA LAKE'","BC","Canada",53.63888931,-126.7488937,991.507,NA,NA,FALSE,0,NA,NA,NA,NA,NA,NA,NA,NA,NA,NA,NA,NA,NA,NA,NA,NA
"CANOPEX","05UA003","'GUNISAO RIVER AT JAM RAPIDS'","MB","Canada",53.82221985,-97.77500153,4606.52,"1973-01-01","2009-12-31",TRUE,30,0,10959,0,0,0.741113705156311,0.993286551412065,2,0.336791124260258,5,71.0095304146608,0.06246,0.0647580952380952,0.0867863440860215,3,124.946601672556,1.39259719958443
"CANOPEX","04CD002","'SACHIGO RIVER BELOW OUTLET OF SACHIGO LAKE'","ON","Canada",53.99443817,-92.1472168,3890.98,"1971-01-01","1992-05-28",TRUE,21,3,7457,0,0,0.797390707131337,0.997065856683348,3,0.48831748193283,6,202.103913276856,0.3331,0.297497278911565,0.32947253968254,4,280.071757245471,1.038351421042
"CANOPEX","05DF003","'BLACKMUD CREEK NEAR ELLERSLIE'","AB","Canada",53.41455078,-113.51651,619.913,NA,NA,FALSE,0,NA,NA,NA,NA,NA,NA,NA,NA,NA,NA,NA,NA,NA,NA,NA,NA
"CANOPEX","04CE002","'FAWN RIVER BELOW BIG TROUT LAKE'","ON","Canada",53.76667023,-89.55000305,4379.03,"1968-01-01","1991-12-31",TRUE,23,0,8401,0,0,0.868528288066936,0.997211696770157,3,0.678766641599896,6,221.042341010911,0.4183,0.463949689440994,0.486466666666667,4,266.978614220736,1.59752708902429
"CANOPEX","07AG003","'WOLF CREEK AT HIGHWAY NO. 16A'","AB","Canada",53.59835052,-116.271843,839.561,"1954-11-01","2010-12-31",TRUE,57,0,20515,0,0,0.714102139454301,0.989481164048237,1,0.337918105818622,4,51.2815418447051,0.042,0.0311899749373434,0.052878381795196,2,146.529749013574,1.66495530596388
"CANOPEX","05EF005","'BIG GULLY CREEK NEAR MAIDSTONE'","SK","Canada",53.24417114,-109.2958298,1528.15,NA,NA,FALSE,0,NA,NA,NA,NA,NA,NA,NA,NA,NA,NA,NA,NA,NA,NA,NA,NA
"CANOPEX","07AB002","'SNAKE INDIAN RIVER NEAR THE MOUTH'","AB","Canada",53.15777969,-118.0327835,1549.86,NA,NA,FALSE,0,NA,NA,NA,NA,NA,NA,NA,NA,NA,NA,NA,NA,NA,NA,NA,NA
"CANOPEX","05DF004","'STRAWBERRY CREEK NEAR THE MOUTH'","AB","Canada",53.31148911,-114.0520706,567.186,NA,NA,FALSE,0,NA,NA,NA,NA,NA,NA,NA,NA,NA,NA,NA,NA,NA,NA,NA,NA
"CANOPEX","08KD006","'WILLOW RIVER ABOVE HAY CREEK'","BC","Canada",54.04555893,-122.3730621,2768.81,"1976-01-01","2008-12-31",TRUE,30,0,10957,0,0,0.72600530062985,0.97045886321637,1,0.275830248870459,5,187.139717626623,0.2275,0.203881904761905,0.311838488783943,2,422.132661019284,1.60392587173158
"CANOPEX","05GF001","'SHELL BROOK NEAR SHELLBROOK'","SK","Canada",53.25278091,-106.3858337,2637.74,NA,NA,FALSE,0,NA,NA,NA,NA,NA,NA,NA,NA,NA,NA,NA,NA,NA,NA,NA,NA
"CANOPEX","05EE009","'VERMILION RIVER AT VEGREVILLE'","AB","Canada",53.49118042,-112.0398026,1569.55,NA,NA,FALSE,0,NA,NA,NA,NA,NA,NA,NA,NA,NA,NA,NA,NA,NA,NA,NA,NA
"CANOPEX","08JA004","'TETACHUCK RIVER NEAR OOTSA LAKE'","BC","Canada",53.3533287,-125.5694427,3264.93,NA,NA,FALSE,0,NA,NA,NA,NA,NA,NA,NA,NA,NA,NA,NA,NA,NA,NA,NA,NA
"CANOPEX","05EG004","'CRYSTAL CREEK NEAR IFFLEY'","SK","Canada",52.97972107,-108.1563873,345.006,NA,NA,FALSE,0,NA,NA,NA,NA,NA,NA,NA,NA,NA,NA,NA,NA,NA,NA,NA,NA
"CANOPEX","08KD007","'BOWRON RIVER BELOW BOX CANYON'","BC","Canada",54.01694107,-122.1028595,3270.02,"1977-01-01","2010-12-31",TRUE,33,0,12053,0,0,0.731070617862788,0.972981582438117,2,0.286469344801314,5,311.357692433721,0.4201,0.379463203463203,0.52734313304721,2,619.133444088958,1.71412235557036
"CANOPEX","05LD001","'OVERFLOWING RIVER AT OVERFLOWING RIVER'","MB","Canada",53.14294052,-101.1025009,3269.72,NA,NA,FALSE,0,NA,NA,NA,NA,NA,NA,NA,NA,NA,NA,NA,NA,NA,NA,NA,NA
"CANOPEX","08KG003","'BAEZAEKO RIVER AT LOT 10262'","BC","Canada",52.98611069,-123.8027802,1017.98,"1974-10-08","1995-12-31",TRUE,22,7,7762,0,0,0.762826386307056,0.99259209264208,1,0.332016822883592,5,39.0611950632654,0.05614,0.0500597402597403,0.0650669738863287,1,73.2078028481928,1.67268707748846
"CANOPEX","08KE009","'COTTONWOOD RIVER NEAR CINEMA'","BC","Canada",53.15528107,-122.4761124,1850.61,"1965-01-01","1999-03-31",TRUE,35,0,12508,0,0,0.714905624835349,0.974770839597078,1,0.278855727318321,4,162.7033978554,0.1587,0.149137959183673,0.248846082949309,1,415.876307031266,1.59142223579688
"CANOPEX","05GE001","'RADOUGA CREEK NEAR BLAINE LAKE'","SK","Canada",52.69361115,-106.8744431,880.122,NA,NA,FALSE,0,NA,NA,NA,NA,NA,NA,NA,NA,NA,NA,NA,NA,NA,NA,NA,NA
"CANOPEX","05FA018","'DRIEDMEAT CREEK NEAR THE MOUTH'","AB","Canada",52.88138962,-112.6388931,1168.78,NA,NA,FALSE,0,NA,NA,NA,NA,NA,NA,NA,NA,NA,NA,NA,NA,NA,NA,NA,NA
"CANOPEX","08KE016","'BAKER CREEK AT QUESNEL'","BC","Canada",52.97306061,-122.519722,1539.47,"1963-07-12","2010-12-31",TRUE,47,11,16986,0,0,0.725875761669749,0.965831900616991,1,0.242984397288005,4,37.0550716803762,0.03494,0.0316179331306991,0.0636650070126227,1,102.512685487315,1.45224404042832
"CANOPEX","05DE007","'ROSE CREEK NEAR ALDER FLATS'","AB","Canada",52.92990875,-115.0110168,527.491,NA,NA,FALSE,0,NA,NA,NA,NA,NA,NA,NA,NA,NA,NA,NA,NA,NA,NA,NA,NA
"CANOPEX","08KH003","'CARIBOO RIVER BELOW KANGAROO CREEK'","BC","Canada",52.66667175,-121.6708298,3182.39,"1950-01-01","1995-03-31",TRUE,41,0,14700,0,0,0.711274098056891,0.991652320404827,2,0.235967591232586,5,473.529862449145,0.4724,0.452913240418118,0.566094214162349,2,944.271330191668,1.39721219565239
"CANOPEX","08KA007","'FRASER RIVER AT RED PASS'","BC","Canada",52.98627853,-119.0066681,1661.48,"1955-06-01","2010-12-31",TRUE,56,0,20303,0,0,0.688972412150739,0.999899405317729,2,0.208263700446176,6,356.59265902801,0.2782,0.258475510204082,0.276543049853372,3,861.868636510179,1.48487338305585
"CANOPEX","07AA004","'MALIGNE RIVER NEAR JASPER'","AB","Canada",52.93082809,-118.0261078,879.741,"1973-01-01","1997-12-31",TRUE,24,0,8766,0,0,0.681626611934409,0.99999070294854,2,0.198269137359985,6,262.221237867082,0.2288,0.207521428571429,0.225963575268817,3,582.202725811209,0.80453087127333
"CANOPEX","05LB006","'SHAND CREEK NEAR DILLABOUGH'","SK","Canada",52.61832809,-102.7513885,609.697,NA,NA,FALSE,0,NA,NA,NA,NA,NA,NA,NA,NA,NA,NA,NA,NA,NA,NA,NA,NA
"CANOPEX","05KB003","'CARROT RIVER NEAR ARMLEY'","SK","Canada",53.13639069,-104.0208282,4420.58,NA,NA,FALSE,0,NA,NA,NA,NA,NA,NA,NA,NA,NA,NA,NA,NA,NA,NA,NA,NA
"CANOPEX","08LA013","'CLEARWATER RIVER AT OUTLET OF HOBSON LAKE'","BC","Canada",52.42166901,-120.3238907,863.839,"1961-01-01","1983-12-31",TRUE,23,0,8400,0,0,0.680684106866773,0.999515469550251,2,0.230765125342559,5,757.667264478623,0.6231,0.581669565217391,0.651360168302945,3,1647.16975549675,1.5352692684328
"CANOPEX","07AA009","'WHIRLPOOL RIVER NEAR THE MOUTH'","AB","Canada",52.72472,-117.9247208,581.298,NA,NA,FALSE,0,NA,NA,NA,NA,NA,NA,NA,NA,NA,NA,NA,NA,NA,NA,NA,NA
"CANOPEX","03CE001","'GIPOULOUX (RIVIERE)'","QC","Canada",52.65222168,-76.18611145,3359.4,"1961-01-01","1980-05-30",FALSE,19,1,6725,0,0,0.736855833389621,0.998741955127405,3,0.302900653663709,5,342.599797911725,0.3704,0.330832330827068,0.381190662139219,3,597.00988386656,1.41237583634994
"CANOPEX","03QC002","'ALEXIS RIVER NEAR PORT HOPE SIMPSON'","NL","Canada",52.64860916,-56.87121964,2246.79,"1978-01-01","2010-12-31",TRUE,33,0,12053,0,0,0.734859799586974,0.986444046358671,2,0.167602492801914,5,274.826915842703,0.2411,0.222414285714286,0.302324144672532,3,730.130166484588,1.85145223129165
"CANOPEX","03OE003","'MINIPI RIVER BELOW MINIPI LAKE'","NL","Canada",52.61257935,-61.18544006,1911.17,"1979-01-01","2010-12-31",TRUE,28,0,10226,0,0,0.761319165441461,0.998906250981429,3,0.314386047492995,5,503.114725794756,0.5922,0.547128571428571,0.623222811059908,3,929.665822703436,1.5199098783108
"CANOPEX","08KF001","'NAZKO RIVER ABOVE MICHELLE CREEK'","BC","Canada",52.9291687,-123.5472183,3068.35,"1965-01-01","1995-12-31",TRUE,28,0,10227,0,0,0.742111403077047,0.975304706732128,1,0.3030080711229,5,19.5380938589585,0.0207,0.0200295918367347,0.0335908986175115,1,50.4226480720607,1.4971210439785
"CANOPEX","02XA003","'LITTLE MECATINA RIVER ABOVE LAC FOURMONT'","NL","Canada",52.22980881,-61.31694031,4376.49,"1979-01-01","2010-12-31",TRUE,30,0,10958,0,0,0.756382580030206,0.993094738729522,2,0.214576891119721,5,318.081715371931,0.3415,0.311877619047619,0.359069139784946,3,673.165441132075,1.78547441846707
"CANOPEX","08FC003","'DEAN RIVER BELOW TANSWANKET CREEK'","BC","Canada",52.88972092,-125.7713928,3691.49,"1973-01-01","2010-12-31",TRUE,38,0,13879,0,0,0.727729732595676,0.975892724511006,1,0.223330541518979,5,61.2233259318091,0.0744,0.0719124060150376,0.101396924510718,2,140.6181638863,1.48355182881617
"CANOPEX","08KH010","'HORSEFLY RIVER ABOVE MCKINLEY CREEK'","BC","Canada",52.28971863,-121.0602798,773.318,"1955-06-01","2010-12-31",TRUE,49,0,17746,0,0,0.710646728373359,0.981401823765053,2,0.2133104125904,5,346.104871970232,0.3575,0.324412244897959,0.440001548672566,2,794.376158753988,1.61126336108144
"CANOPEX","08KH019","'MOFFAT CREEK NEAR HORSEFLY'","BC","Canada",52.31528091,-121.4055634,513.877,"1967-01-01","2010-12-31",TRUE,42,0,15341,0,0,0.722084575954168,0.947281098863586,1,0.278454738524815,5,81.943834555481,0.075,0.0692571428571429,0.157326537489469,2,204.58734781161,1.53429446181277
"CANOPEX","05FD005","'RIBSTONE CREEK NEAR CZAR'","AB","Canada",52.48806,-110.7375031,1565.18,NA,NA,FALSE,0,NA,NA,NA,NA,NA,NA,NA,NA,NA,NA,NA,NA,NA,NA,NA,NA
"CANOPEX","05LE008","'SWAN RIVER NEAR NORQUAY'","SK","Canada",51.99777985,-102.0738907,1920.43,"1974-01-01","1998-12-31",TRUE,25,0,9131,0,0,0.727803504881333,0.994560090232968,1,0.291376665438735,4,21.7103664805223,0.0175,0.0125594285714286,0.0217515580736544,2,69.1018556260623,1.47265318496741
"CANOPEX","05LE004","'WOODY RIVER NEAR BOWSMAN'","MB","Canada",52.25968933,-101.1416092,2219.31,NA,NA,FALSE,0,NA,NA,NA,NA,NA,NA,NA,NA,NA,NA,NA,NA,NA,NA,NA,NA
"CANOPEX","05RD007","'BERENS RIVER AT OUTLET OF LONG LAKE'","MB","Canada",52.20278168,-96.1027832,3479.27,"1958-01-01","1992-03-31",TRUE,34,0,12144,0,0,0.753431689459647,0.997168641082522,3,0.39302849953688,6,211.453681278179,0.2357,0.273602100840336,0.341076185958254,3,343.444632851531,1.19046729956549
"CANOPEX","08LA004","'MURTLE RIVER ABOVE DAWSON FALLS'","BC","Canada",51.97943878,-120.1036072,1326.93,"1954-01-01","1983-12-31",TRUE,25,0,9131,0,0,0.721354974632869,0.997963198204038,2,0.236149337810057,6,488.43349872242,0.5717,0.515009714285714,0.608025806451613,3,1042.1409096204,1.44077647559819
"CANOPEX","08FB006","'ATNARKO RIVER NEAR THE MOUTH'","BC","Canada",52.3608284,-126.0055084,2519.1,"1965-04-13","2009-12-31",TRUE,40,12,14519,0,0,0.742246406845064,0.966837575929057,2,0.273450950495173,5,180.7827383467,0.2487,0.231485714285714,0.321405210918114,3,352.598006087568,1.49026161581656
"CANOPEX","04FA003","'PINEIMUTA RIVER AT EYES LAKE'","ON","Canada",52.30828094,-88.7603302,4778.15,"1966-10-01","2010-12-31",TRUE,39,0,13972,0,0,0.71572445857271,0.9999967170544,2,0.187034871442395,5,165.400109161394,0.1269,0.119178388278388,0.132384465195246,3,349.366738238753,1.66759518818102
"CANOPEX","05MC001","'ASSINIBOINE RIVER AT STURGIS'","SK","Canada",51.93972015,-102.5469437,1912.58,NA,NA,FALSE,0,NA,NA,NA,NA,NA,NA,NA,NA,NA,NA,NA,NA,NA,NA,NA,NA
"CANOPEX","05LE005","'ROARING RIVER NEAR MINITONAS'","MB","Canada",52.15089035,-101.0602493,925.711,NA,NA,FALSE,0,NA,NA,NA,NA,NA,NA,NA,NA,NA,NA,NA,NA,NA,NA,NA,NA
"CANOPEX","05DA006","'NORTH SASKATCHEWAN RIVER AT SASKATCHEWAN CROSSING'","AB","Canada",51.96667099,-116.7249985,1241.58,"1967-01-01","1969-12-31",FALSE,3,0,1096,0,0,0.64668522047634,1,2,0.161790654990244,6,395.17564703642,0.1969,0.1751,0.212494623655914,3,1071.9221545098,1.36118258201563
"CANOPEX","05DA002","'SIFFLEUR RIVER NEAR THE MOUTH'","AB","Canada",52.04417038,-116.3838882,505.641,NA,NA,FALSE,0,NA,NA,NA,NA,NA,NA,NA,NA,NA,NA,NA,NA,NA,NA,NA,NA
"CANOPEX","05DB003","'CLEARWATER RIVER ABOVE LIMESTONE CREEK'","AB","Canada",51.9916687,-115.4333267,1318.73,NA,NA,FALSE,0,NA,NA,NA,NA,NA,NA,NA,NA,NA,NA,NA,NA,NA,NA,NA,NA
"CANOPEX","08LB047","'NORTH THOMPSON RIVER AT BIRCH ISLAND'","BC","Canada",51.60277939,-119.9152832,4418.81,"1961-01-01","2010-12-31",TRUE,50,0,18262,0,0,0.686422032655511,0.989135390686214,2,0.24093397266866,5,504.7843305729,0.4673,0.388803142857143,0.549232082152974,2,1075.18448030028,1.36535573195617
"CANOPEX","08ND012","'GOLDSTREAM RIVER BELOW OLD CAMP CREEK'","BC","Canada",51.66833115,-118.5969391,926.086,"1964-01-01","2010-12-31",TRUE,47,14,17167,0,0,0.684899700465348,0.993091299805039,2,0.229834052906178,5,585.433986700485,0.5411,0.450037689969605,0.595060918674699,2,1316.23225423589,1.36046409438633
"CANOPEX","08LA008","'MAHOOD RIVER AT OUTLET OF MAHOOD LAKE'","BC","Canada",51.93193817,-120.2413864,4654.18,"1958-01-01","1984-12-31",TRUE,23,13,8401,0,0,0.734119899336781,0.976430720421313,1,0.200828287894672,5,103.923287590047,0.1145,0.107655279503106,0.174430615384615,2,228.102620460583,1.28054156059355
"CANOPEX","08NB012","'BLAEBERRY RIVER ABOVE WILLOWBANK CREEK'","BC","Canada",51.48139191,-116.9683304,577.79,"1970-01-01","2010-12-31",TRUE,38,0,13879,0,0,0.67041685265356,0.999006679703151,2,0.225455748958006,5,384.653099045331,0.3036,0.261625563909774,0.318153588070829,2,905.902247834404,1.22079276138912
"CANOPEX","05CA001","'RED DEER RIVER NEAR SUNDRE'","AB","Canada",51.70000076,-114.8555603,2452.53,"1970-01-01","1971-12-31",FALSE,2,0,730,0,0,0.718428877190131,0.994194630198235,12,0.23971168555255,6,113.120465875382,0.1515,0.126492857142857,0.148896774193548,12,256.64885,1.64213126064943
"CANOPEX","08GD007","'MOSLEY CREEK NEAR DUMBELL LAKE'","BC","Canada",51.4086113,-124.9316711,1501.85,"1982-01-01","1995-03-31",FALSE,14,0,4838,0,0,0.675957037964455,0.967524971330889,2,0.275636008828893,6,463.398702985625,0.4372,0.365144897959184,0.549730126582278,2,1028.01486057727,1.53294879756526
"CANOPEX","05MD007","'SHELL RIVER NEAR ROBLIN'","MB","Canada",51.3619194,-101.256218,1248.76,"1963-01-01","1976-12-31",FALSE,14,0,5114,0,0,0.761943156592682,0.998269114624217,2,0.333389293498927,4,21.8293921720581,0.0237,0.0208908163265306,0.0333141414141414,2,55.854795959596,1.64272768549598
"CANOPEX","08ND009","'DOWNIE CREEK NEAR REVELSTOKE'","BC","Canada",51.47694016,-118.42556,626.806,"1954-01-01","1982-12-31",TRUE,23,0,8400,0,0,0.683461695235607,0.999317708744634,2,0.228789307477051,5,685.604537712723,0.5927,0.521334161490683,0.670419775596073,3,1524.33568798821,1.22975724711025
"CANOPEX","05JH005","'LEWIS CREEK NEAR IMPERIAL'","SK","Canada",51.30056,-105.3811111,576.811,NA,NA,FALSE,0,NA,NA,NA,NA,NA,NA,NA,NA,NA,NA,NA,NA,NA,NA,NA,NA
"CANOPEX","05JJ009","'SALINE CREEK NEAR NOKOMIS'","SK","Canada",51.41611099,-105.1030579,557.748,NA,NA,FALSE,0,NA,NA,NA,NA,NA,NA,NA,NA,NA,NA,NA,NA,NA,NA,NA,NA
"CANOPEX","08LB069","'BARRIERE RIVER BELOW SPRAGUE CREEK'","BC","Canada",51.24721909,-119.9305573,602.766,"1964-06-01","2010-12-31",TRUE,46,0,16650,0,0,0.713603549831559,0.976144493308823,1,0.185591810375895,5,226.556265133482,0.2422,0.229465217391304,0.332667427222659,2,603.227194532283,1.40967985167393
"CANOPEX","08LE027","'SEYMOUR RIVER NEAR SEYMOUR ARM'","BC","Canada",51.26250076,-118.9466705,780.845,"1970-01-01","2010-12-31",TRUE,41,0,14975,0,0,0.687390615713823,0.978310973000669,1,0.282765122493155,5,639.879927112206,0.66544,0.53403031358885,0.800734697088906,1,1457.85925292978,1.40657008849503
"CANOPEX","08GD005","'HOMATHKO RIVER BELOW NUDE CREEK'","BC","Canada",51.37443924,-124.76194,1893.37,"1982-01-01","1995-03-31",FALSE,10,0,3377,0,0,0.688390630052044,0.981352072296003,2,0.288248974712157,6,330.911079880265,0.3509,0.31999,0.416669858156028,2,694.219556028369,1.5030306557939
"CANOPEX","04FA002","'KAWINOGANS RIVER NEAR PICKLE CROW'","ON","Canada",51.64831161,-89.88691711,1374.52,"1968-01-01","1992-12-31",TRUE,25,0,9132,0,0,0.743679429136469,0.999334939803391,2,0.242154088324837,5,189.044644434517,0.203,0.192089714285714,0.219064516129032,3,351.531751009901,1.65489749996841
"CANOPEX","05BH003","'NOSE CREEK AT CALGARY'","AB","Canada",51.12221909,-114.0458298,871.986,NA,NA,FALSE,0,NA,NA,NA,NA,NA,NA,NA,NA,NA,NA,NA,NA,NA,NA,NA,NA
"CANOPEX","08MB006","'BIG CREEK ABOVE GROUNDHOG CREEK'","BC","Canada",51.52305984,-123.1144409,969.124,"1975-01-01","2010-12-31",TRUE,36,0,13149,0,0,0.685228880380686,0.99125151967607,1,0.192074858161242,5,76.0678479916793,0.0505,0.0471956349206349,0.0614949852507375,2,193.767829031465,1.56406516454261
"CANOPEX","08NB019","'BEAVER RIVER NEAR THE MOUTH'","BC","Canada",51.50971985,-117.4616699,1140.71,"1985-01-01","2010-12-31",TRUE,26,0,9496,0,0,0.684007095030014,0.99366625376862,2,0.233633126070976,5,508.220313599794,0.4688,0.374467032967033,0.514944822888283,2,1141.75146273318,1.47473002241883
"CANOPEX","08NA006","'KICKING HORSE RIVER AT GOLDEN'","BC","Canada",51.29999924,-116.9680634,1735.34,"1974-01-01","2010-12-31",TRUE,37,0,13514,0,0,0.677440268365983,0.998123420291759,2,0.237616064953422,5,302.189469371443,0.2569,0.208950193050193,0.26752966507177,2,728.01537116255,1.36092169833092
"CANOPEX","05HF005","'MACDONALD CREEK NEAR BOUNTY'","SK","Canada",51.53221893,-107.4122162,2284.16,NA,NA,FALSE,0,NA,NA,NA,NA,NA,NA,NA,NA,NA,NA,NA,NA,NA,NA,NA,NA
"CANOPEX","05SD003","'FISHER RIVER NEAR DALLAS'","MB","Canada",51.35617065,-97.51222229,1537.12,"1962-01-01","1996-12-31",TRUE,35,0,12784,0,0,0.774839765259762,0.99478988939917,1,0.294596812479489,4,9.58006263023479,0.008,0.00713632653061224,0.0108865520728008,2,37.3527234580384,1.3348758702667
"CANOPEX","08ND013","'ILLECILLEWAET RIVER AT GREELEY'","BC","Canada",51.01361084,-118.0824966,1153.97,"1963-11-15","2010-12-31",TRUE,48,14,17228,0,0,0.677449288438715,0.993058839378483,2,0.231504051990023,5,635.853583860458,0.5615,0.457831547619048,0.594101430722892,2,1439.69319997179,1.54440000266366
"CANOPEX","08LD001","'ADAMS RIVER NEAR SQUILAX'","BC","Canada",50.9383316,-119.6544418,3139.95,"1950-01-01","2010-12-31",TRUE,57,0,20818,0,0,0.71952595198431,0.996546609720352,2,0.281525099239809,6,383.86991437361,0.454,0.440754135338346,0.497912790039615,3,717.497654018514,1.33573560473945
"CANOPEX","05BH009","'JUMPINGPOUND CREEK NEAR THE MOUTH'","AB","Canada",51.15444183,-114.5283279,603.808,"1971-01-01","2005-12-31",TRUE,35,0,12784,188,1.47,0.656937492373352,0.914545686231765,1,0.335558408671067,5,30.4615068527296,0.015,0.0080865306122449,0.0204508755760369,1,90.1669958081756,1.35602774805952
"CANOPEX","08MA002","'CHILKO RIVER AT OUTLET OF CHILKO LAKE'","BC","Canada",51.62527847,-124.1419373,2131.76,"1950-01-01","2010-12-31",TRUE,44,13,16070,0,0,0.694195028734816,0.997054055595685,3,0.230381137590091,6,315.883319088886,0.3238,0.311471103896104,0.364515984848485,4,632.860673192922,1.15073116593141
"CANOPEX","05LJ045","'WILSON RIVER NEAR ASHVILLE'","MB","Canada",51.15613937,-100.3324966,498.955,NA,NA,FALSE,0,NA,NA,NA,NA,NA,NA,NA,NA,NA,NA,NA,NA,NA,NA,NA,NA
"CANOPEX","08LE024","'EAGLE RIVER NEAR MALAKWA'","BC","Canada",50.93638992,-118.7997208,917.773,"1966-01-01","2010-12-31",TRUE,45,0,16436,0,0,0.701020141643462,0.976025811595184,1,0.286723460036187,5,601.051743446439,0.6929,0.573778412698413,0.834228874901652,2,1294.53450627502,1.41729247385774
"CANOPEX","08MA003","'TASEKO RIVER AT OUTLET OF TASEKO LAKES'","BC","Canada",51.37944031,-123.6305618,1735.81,"1983-01-01","2010-12-31",TRUE,28,0,10227,0,0,0.675218899065955,0.998143828317839,2,0.208880646328781,6,279.181164977427,0.2125,0.199053571428571,0.231981797235023,3,675.917196523388,1.58144288550528
"CANOPEX","08ME025","'YALAKOM RIVER ABOVE ORE CREEK'","BC","Canada",50.91249847,-122.2372208,579.952,"1983-01-01","2010-12-31",TRUE,28,0,10227,0,0,0.752258531535783,0.992286093934281,2,0.32650246643235,6,132.174060040174,0.2041,0.176236224489796,0.220184323640961,2,236.157550347661,1.20753094885577
"CANOPEX","05HE001","'SNAKEBITE CREEK NEAR BEECHY'","SK","Canada",50.80167007,-107.2752838,403.39,NA,NA,FALSE,0,NA,NA,NA,NA,NA,NA,NA,NA,NA,NA,NA,NA,NA,NA,NA,NA
"CANOPEX","08NE001","'INCOMAPPLEUX RIVER NEAR BEATON'","BC","Canada",50.77360916,-117.6766663,1015.65,"1953-01-01","1996-04-26",TRUE,44,4,15826,0,0,0.679269833448496,0.991719679379311,1,0.240523452294615,5,795.421844139895,0.74099,0.651564285714286,0.781987288817377,2,1735.07643585241,1.45238011366649
"CANOPEX","05SC002","'ICELANDIC RIVER NEAR RIVERTON'","MB","Canada",50.96472168,-97.03746796,1380.39,NA,NA,FALSE,0,NA,NA,NA,NA,NA,NA,NA,NA,NA,NA,NA,NA,NA,NA,NA,NA
"CANOPEX","05BJ005","'ELBOW RIVER ABOVE GLENMORE DAM'","AB","Canada",51,-114.0999985,1168.82,"1950-01-01","1977-12-31",TRUE,28,0,10227,0,0,0.735672714765081,0.96253657586823,1,0.372257222642529,6,137.00882815387,0.1988,0.136515306122449,0.221421082949309,1,260.560695638432,1.27181149473978
"CANOPEX","05RA001","'MANIGOTAGAN RIVER NEAR MANIGOTAGAN'","MB","Canada",51.10128021,-96.28302765,1822.51,"1961-01-01","1996-12-31",TRUE,36,0,13149,0,0,0.750166334762615,0.965902054337727,2,0.349822639934439,5,79.6224824160397,0.0849,0.0943642857142857,0.140799641577061,3,151.504682964602,1.29741830361054
"CANOPEX","05QE012","'LONG-LEGGED RIVER BELOW LONG-LEGGED LAKE'","ON","Canada",50.67699814,-93.97019196,588.44,"1980-01-01","2010-12-31",TRUE,31,0,11323,0,0,0.76439456352823,0.968425681846318,3,0.433165223485847,5,118.817990126596,0.13602,0.164348847926267,0.231575650364204,3,194.187853748711,1.39250681049931
"CANOPEX","08NH119","'DUNCAN RIVER BELOW B.B. CREEK'","BC","Canada",50.63806152,-117.0472183,1315.89,"1964-01-01","2010-12-31",TRUE,47,0,17167,0,0,0.671115534610764,0.997749339627634,2,0.213648405293337,5,625.519736578647,0.50072,0.435075683890577,0.521148870481928,2,1485.42327475647,1.58331653954291
"CANOPEX","05LJ007","'TURTLE RIVER NEAR LAURIER'","MB","Canada",50.94881058,-99.52674866,1028.55,NA,NA,FALSE,0,NA,NA,NA,NA,NA,NA,NA,NA,NA,NA,NA,NA,NA,NA,NA,NA
"CANOPEX","04KA001","'KWATABOAHEGAN RIVER NEAR THE MOUTH'","ON","Canada",51.16083145,-80.86393738,4180.57,"1967-10-01","2010-12-31",TRUE,39,0,13970,0,0,0.701139317184881,0.999210929125698,2,0.205181222802793,5,102.162096078676,0.0364,0.0345282051282051,0.0507509337860781,3,315.520840331742,1.40412225778654
"CANOPEX","05RA002","'BLACK RIVER NEAR MANIGOTAGAN'","MB","Canada",50.86167145,-96.2527771,772.403,"1960-03-01","1992-03-31",TRUE,32,0,11354,24,0.21,0.692017751525886,0.998796840289934,2,0.265103890365534,5,42.2884611794959,0.0114,0.0143428571428571,0.0447479452054795,2,136.905959199624,1.20310182949812
"CANOPEX","05ME003","'BIRDTAIL CREEK NEAR BIRTLE'","MB","Canada",50.534729,-100.9524918,1096.59,NA,NA,FALSE,0,NA,NA,NA,NA,NA,NA,NA,NA,NA,NA,NA,NA,NA,NA,NA,NA
"CANOPEX","02YC001","'TORRENT RIVER AT BRISTOL''S POOL'","NL","Canada",50.60747147,-57.15161133,639.593,"1959-08-01","2010-12-31",TRUE,52,0,18781,0,0,0.723777932263455,0.946039009067024,2,0.256926330436001,5,553.773435577168,0.6619,0.52101043956044,1.01842517394054,3,1206.79733083994,1.6735617598737
"CANOPEX","08NH066","'LARDEAU RIVER AT GERRARD'","BC","Canada",50.50999832,-117.2747192,812.401,"1950-01-01","1954-12-31",FALSE,5,0,1826,0,0,0.720845780862754,0.998803964575351,3,0.251489987348608,5,523.077142642973,0.5871,0.539888571428571,0.586011612903226,3,1168.20000978723,0.96222482909379
"CANOPEX","08NF006","'PALLISER RIVER IN LOT SL49'","BC","Canada",50.52528,-115.6191711,681.098,"1973-01-01","1994-12-31",TRUE,22,0,8035,0,0,0.705169900771802,0.995357813620906,2,0.222372698432454,5,296.053137791911,0.3032,0.261125974025974,0.330004830917874,2,688.044717083882,1.38955649791309
"CANOPEX","05MF008","'ROLLING RIVER NEAR ERICKSON'","MB","Canada",50.52331161,-99.94613647,773.025,"1972-01-01","1993-12-31",TRUE,22,0,8036,77,0.96,0.698638313628024,0.942848128616806,2,0.24436008052482,4,19.902153425771,0.0086,0.00786818181818182,0.0207967845659164,2,61.7296236042093,1.25595802480982
"CANOPEX","05PJ001","'BIRD RIVER AT OUTLET OF BIRD LAKE'","MB","Canada",50.46281052,-95.41425323,1148.23,"1960-05-01","1978-12-31",FALSE,17,0,6089,0,0,0.736543240835226,0.942455093587637,2,0.312490957151768,5,99.957415437137,0.09916,0.112598319327731,0.193928024193548,3,176.743960606455,1.22553402266342
"CANOPEX","05LL015","'BIG GRASS RIVER NEAR GLENELLA'","MB","Canada",50.50569153,-98.97028351,1043.52,NA,NA,FALSE,0,NA,NA,NA,NA,NA,NA,NA,NA,NA,NA,NA,NA,NA,NA,NA,NA
"CANOPEX","08LG032","'GUICHON CREEK BELOW QUENVILLE CREEK'","BC","Canada",50.41527939,-120.8125,800.188,NA,NA,FALSE,0,NA,NA,NA,NA,NA,NA,NA,NA,NA,NA,NA,NA,NA,NA,NA,NA
"CANOPEX","08MG008","'BIRKENHEAD RIVER AT MOUNT CURRIE'","BC","Canada",50.33889008,-122.7277832,639.134,"1952-01-01","1971-07-31",FALSE,17,0,6056,0,0,0.721486416965394,0.930755939696562,3,0.313355409748396,6,605.728336244035,0.7942,0.69842268907563,1.13877552182163,3,1202.99343875,1.20653633350023
"CANOPEX","05QE009","'STURGEON RIVER AT OUTLET OF SALVESEN LAKE'","ON","Canada",50.35224915,-94.46640778,1750.93,"1960-06-16","2010-12-31",TRUE,48,30,17379,0,0,0.768018055486912,0.988956925859666,2,0.361159666772061,5,116.298136665415,0.1396,0.159435119047619,0.214452573781743,3,199.224484741888,1.68228746744732
"CANOPEX","08MG005","'LILLOOET RIVER NEAR PEMBERTON'","BC","Canada",50.33555984,-122.7994385,2098.5,"1950-01-01","2010-12-31",TRUE,57,0,20819,0,0,0.690927566754267,0.958976773353707,2,0.334492071291637,6,932.447499991117,1.0252,0.906695238095238,1.29628378881988,2,1854.10629871854,1.4738262086494
"CANOPEX","05OJ008","'NETLEY CREEK NEAR PETERSFIELD'","MB","Canada",50.32722092,-97.04416656,855.284,NA,NA,FALSE,0,NA,NA,NA,NA,NA,NA,NA,NA,NA,NA,NA,NA,NA,NA,NA,NA
"CANOPEX","02VA001","'TONNERRE (RIVIERE AU)'","QC","Canada",50.28250122,-64.78278351,689.625,"1950-01-01","1985-12-31",TRUE,32,0,11688,0,0,0.717245232707758,0.964892584824543,2,0.189418365350138,5,353.751077236641,0.3195,0.281667857142857,0.527873008849558,2,939.140741122788,1.53465422631282
"CANOPEX","05JG001","'SANDY CREEK NEAR CARON'","SK","Canada",50.45249939,-106.0291672,430.631,NA,NA,FALSE,0,NA,NA,NA,NA,NA,NA,NA,NA,NA,NA,NA,NA,NA,NA,NA,NA
"CANOPEX","02WA001","'NABISIPI (RIVIERE) A 2.4 KM DE L''EMBOUCHURE'","QC","Canada",50.25305939,-62.21221924,2121.59,"1962-05-14","1988-07-16",TRUE,27,28,9589,0,0,0.732915761937873,0.940805530491406,3,0.24433152340875,5,452.101393695661,0.5131,0.463106349206349,0.722488461538462,3,958.885163993809,1.83951610266722
"CANOPEX","05JF011","'COTTONWOOD CREEK NEAR LUMSDEN'","SK","Canada",50.59056091,-104.9086075,1017.99,NA,NA,FALSE,0,NA,NA,NA,NA,NA,NA,NA,NA,NA,NA,NA,NA,NA,NA,NA,NA
"CANOPEX","08NA012","'TOBY CREEK NEAR ATHALMER'","BC","Canada",50.51082993,-116.0436096,666.279,"1950-01-01","1984-12-31",FALSE,8,0,2922,0,0,0.69191470598502,0.994745289295241,2,0.250402354423473,5,265.903301693309,0.2425,0.224948214285714,0.263004867256637,2,653.143298783186,1.36187413554076
"CANOPEX","05JM010","'EKAPO CREEK NEAR MARIEVAL'","SK","Canada",50.53017044,-102.7100601,1059.36,NA,NA,FALSE,0,NA,NA,NA,NA,NA,NA,NA,NA,NA,NA,NA,NA,NA,NA,NA,NA
"CANOPEX","08NA045","'COLUMBIA RIVER NEAR FAIRMONT HOT SPRINGS'","BC","Canada",50.3236084,-115.8625031,899.3,"1950-01-01","1996-08-27",TRUE,47,4,17045,0,0,0.758387267457853,0.988669399025995,1,0.234047756050988,6,188.713676454684,0.3103,0.276105775075988,0.345539121482498,3,368.945435756186,1.42143946083997
"CANOPEX","05MG001","'ARROW RIVER NEAR ARROW RIVER'","MB","Canada",50.09267044,-100.9560394,641.51,NA,NA,FALSE,0,NA,NA,NA,NA,NA,NA,NA,NA,NA,NA,NA,NA,NA,NA,NA,NA
"CANOPEX","08GA071","'ELAHO RIVER NEAR THE MOUTH'","BC","Canada",50.11943817,-123.4361115,1241.35,"1982-01-01","2010-12-31",TRUE,29,0,10592,0,0,0.674551562424358,0.919188899418809,2,0.353090366345281,5,1279.78529074882,1.0997,0.797473399014778,1.70207692307692,2,2644.22807453581,1.35007498766127
"CANOPEX","05QE008","'CEDAR RIVER BELOW WABASKANG LAKE'","ON","Canada",50.50756073,-93.25858307,1528.32,"1970-01-01","2010-12-31",TRUE,41,0,14975,0,0,0.813793949200908,0.985781856132238,3,0.566345442630953,6,170.728713077035,0.2307,0.283742857142857,0.377298347757671,3,237.398967479675,1.55327016218523
"CANOPEX","08MG003","'GREEN RIVER NEAR PEMBERTON'","BC","Canada",50.28194046,-122.851387,823.77,"1950-01-01","1951-09-30",FALSE,2,0,638,0,0,0.711292725676819,0.973056669504411,2,0.312719555260021,5,1116.74092821545,1.0803,1.05865,1.27521774193548,3,2076.1319,1.38370865531951
"CANOPEX","08NH130","'FRY CREEK BELOW CARNEY CREEK'","BC","Canada",50.08139038,-116.7847214,582.608,"1973-05-16","2010-12-31",TRUE,38,15,13759,0,0,0.686325472023783,0.997279458074601,2,0.213828339105419,5,401.941345208673,0.3307,0.294942481203007,0.34573014354067,2,1011.51694188066,1.47336507885084
"CANOPEX","08HF005","'NIMPKISH RIVER ABOVE WOSS RIVER'","BC","Canada",50.21527863,-126.609169,852.174,"1991-01-01","2010-12-31",TRUE,20,0,7305,0,0,0.714135316523409,0.934678849365473,8,0.423504287674655,11,1043.02942163222,0.9328,0.655929285714286,1.64666403225806,8,2244.50309632743,1.50209724372784
"CANOPEX","08NK018","'FORDING RIVER AT THE MOUTH'","BC","Canada",49.89416885,-114.8647232,608.419,"1970-01-01","2010-12-31",TRUE,41,0,14975,0,0,0.73649401104061,0.991271484272784,2,0.238926906716366,5,183.048464560438,0.2499,0.215048432055749,0.271831347150259,2,411.066192354354,1.61175969501651
"CANOPEX","05MH011","'WILLOW CREEK NEAR CHATER'","MB","Canada",49.85889053,-99.82611084,577.247,NA,NA,FALSE,0,NA,NA,NA,NA,NA,NA,NA,NA,NA,NA,NA,NA,NA,NA,NA,NA
"CANOPEX","08MF065","'NAHATLATCH RIVER BELOW TACHEWANA CREEK'","BC","Canada",49.95391846,-121.8627472,715.188,"1974-01-01","2010-12-31",TRUE,31,0,11322,0,0,0.711039903730097,0.929317866729328,2,0.354469400044669,5,762.82298005013,0.9665,0.810145161290323,1.41341542857143,2,1564.62260296774,1.60900513293001
"CANOPEX","05LL007","'PINE CREEK NEAR PINE CREEK STATION'","MB","Canada",50.06111145,-98.94693756,618.628,NA,NA,FALSE,0,NA,NA,NA,NA,NA,NA,NA,NA,NA,NA,NA,NA,NA,NA,NA,NA
"CANOPEX","05OJ006","'COOKS CREEK AT COOKS CREEK'","MB","Canada",50.02000046,-96.77306366,458.933,NA,NA,FALSE,0,NA,NA,NA,NA,NA,NA,NA,NA,NA,NA,NA,NA,NA,NA,NA,NA
"CANOPEX","08NG051","'SKOOKUMCHUCK CREEK NEAR SKOOKUMCHUCK'","BC","Canada",49.91167068,-115.7675018,648.476,"1950-01-01","1984-12-31",TRUE,26,0,9497,0,0,0.727087485730906,0.997375790767278,2,0.231691163793297,5,203.461607025718,0.2638,0.234702747252747,0.286413469387755,2,514.163919450549,1.53002085574532
"CANOPEX","05NE003","'PIPESTONE CREEK ABOVE MOOSOMIN LAKE'","SK","Canada",50.15219116,-101.8370285,2916.1,NA,NA,FALSE,0,NA,NA,NA,NA,NA,NA,NA,NA,NA,NA,NA,NA,NA,NA,NA,NA
"CANOPEX","08LG008","'SPIUS CREEK NEAR CANFORD'","BC","Canada",50.13528061,-121.0297165,745.472,"1971-01-01","2007-12-31",TRUE,37,0,13514,0,0,0.671627672199179,0.966044271526626,9,0.269496683457831,5,148.37990114664,0.11573,0.0866795366795367,0.156013603603604,9,428.034361453511,1.03970211120486
"CANOPEX","08NJ014","'SLOCAN RIVER AT SLOCAN CITY'","BC","Canada",49.76889038,-117.4730606,1812.86,"1950-01-01","1968-12-31",FALSE,19,0,6940,0,0,0.737002441323503,0.993549928755945,2,0.25329385769195,6,465.352335317115,0.6815,0.628872932330827,0.714981494057725,3,959.219190228364,1.49017822600343
"CANOPEX","02YG001","'MAIN RIVER AT PARADISE POOL'","NL","Canada",49.81066895,-57.15942001,635.982,"1986-01-01","2010-12-31",TRUE,25,0,9131,0,0,0.696418123262324,0.917450007342057,2,0.236931197385871,5,528.643536923426,0.591,0.409906285714286,1.24213300283286,2,1405.48739207932,1.41589539159172
"CANOPEX","05AH050","'BOXELDER CREEK AT HARGRAVE''S RANCH'","SK","Canada",50.01197815,-109.9870071,1140.59,NA,NA,FALSE,0,NA,NA,NA,NA,NA,NA,NA,NA,NA,NA,NA,NA,NA,NA,NA,NA
"CANOPEX","05MH006","'LITTLE SOURIS RIVER NEAR BRANDON'","MB","Canada",49.7321701,-99.84886169,618.245,NA,NA,FALSE,0,NA,NA,NA,NA,NA,NA,NA,NA,NA,NA,NA,NA,NA,NA,NA,NA
"CANOPEX","05JE002","'MOOSE JAW RIVER NEAR LANG'","SK","Canada",49.93082809,-104.4824982,832.178,NA,NA,FALSE,0,NA,NA,NA,NA,NA,NA,NA,NA,NA,NA,NA,NA,NA,NA,NA,NA
"CANOPEX","05SA004","'BROKENHEAD RIVER NEAR VIVIAN'","MB","Canada",49.88528061,-96.36582947,606.586,NA,NA,FALSE,0,NA,NA,NA,NA,NA,NA,NA,NA,NA,NA,NA,NA,NA,NA,NA,NA
"CANOPEX","05OF011","'BOYNE RIVER NEAR ROSEISLE'","MB","Canada",49.54528046,-98.41443634,625.665,NA,NA,FALSE,0,NA,NA,NA,NA,NA,NA,NA,NA,NA,NA,NA,NA,NA,NA,NA,NA
"CANOPEX","05HD036","'SWIFT CURRENT CREEK BELOW ROCK CREEK'","SK","Canada",49.84444046,-108.4794388,1423.23,"1979-01-01","2010-12-31",TRUE,32,0,11688,468,4,0.647688473267875,0.890298817251667,1,0.359942542730615,3,6.08901579674392,0.0018,0.00115580357142857,0.0109776209677419,8,20.3257801438053,1.31091287102278
"CANOPEX","08NG046","'ST. MARY RIVER NEAR MARYSVILLE'","BC","Canada",49.60805893,-116.1686096,1475.72,"1950-01-01","1994-12-31",TRUE,45,0,16436,0,0,0.70935163021945,0.989312127990639,1,0.199156233666336,5,330.035278153987,0.3566,0.329370158730159,0.398048151062156,2,868.104061563074,1.600991426571
"CANOPEX","08NK020","'MICHEL CREEK BELOW NATAL'","BC","Canada",49.73028183,-114.8566666,631.305,"1970-01-01","1994-12-31",TRUE,25,0,9131,0,0,0.720739736537843,0.978637669641522,2,0.176719153547147,5,191.111023597548,0.2176,0.176042285714286,0.25638597733711,2,538.793907365439,1.44542823383669
"CANOPEX","05NF013","'GAINSBOROUGH CREEK NEAR STORTHOAKS'","SK","Canada",49.41416931,-101.5266724,718.619,NA,NA,FALSE,0,NA,NA,NA,NA,NA,NA,NA,NA,NA,NA,NA,NA,NA,NA,NA,NA
"CANOPEX","08NN022","'WEST KETTLE RIVER BELOW CARMI CREEK'","BC","Canada",49.48416901,-119.1083298,1191.41,"1973-10-01","1996-04-16",TRUE,23,14,7883,0,0,0.688395354875189,0.980971756449534,1,0.217006269965446,5,76.8411219357072,0.04768,0.0486372670807453,0.0809372990353698,2,256.439157327837,1.21255140528547
"CANOPEX","11AB076","'BATTLE CREEK ABOVE CYPRESS LAKE WEST INFLOW CANAL'","SK","Canada",49.42889023,-109.6838913,622.16,NA,NA,FALSE,0,NA,NA,NA,NA,NA,NA,NA,NA,NA,NA,NA,NA,NA,NA,NA,NA
"CANOPEX","05NG010","'OAK CREEK NEAR STOCKTON'","MB","Canada",49.56193924,-99.51186371,302.374,"1974-01-01","1996-12-31",TRUE,23,0,8401,1819,21.65,0.528545710932455,0.703129290482325,12,0.319152544466411,4,8.96074911179209,0,0.000295652173913043,0.00121388499298738,1,57.8671911036789,0.979279639961078
"CANOPEX","02YM001","'INDIAN BROOK AT INDIAN FALLS'","NL","Canada",49.51194,-56.11249924,959.195,"1955-01-01","1996-04-19",TRUE,42,11,15096,0,0,0.713367961886286,0.906151724496258,2,0.305314947392605,5,284.931081655075,0.3675,0.297495238095238,0.741113690007868,8,637.794713748098,1.47100791621592
"CANOPEX","08MF068","'COQUIHALLA RIVER ABOVE ALEXANDER CREEK'","BC","Canada",49.36943817,-121.3888931,625.097,"1987-01-01","2010-12-31",TRUE,21,0,7669,0,0,0.705843526692182,0.94959770358735,9,0.449910384759598,5,755.960573963504,0.8694,0.671695918367347,1.19972079365079,9,1524.26908352638,1.74304190542144
"CANOPEX","08NL024","'TULAMEEN RIVER AT PRINCETON'","BC","Canada",49.45750046,-120.5180588,1793.99,"1950-08-03","2010-12-31",TRUE,59,2,21337,0,0,0.690923121103439,0.961754638765157,9,0.220526216154159,5,125.888242896651,0.1103,0.0948484261501211,0.174043163841808,9,381.414408454417,1.20530327065966
"CANOPEX","05MH004","'CYPRESS RIVER NEAR CYPRESS RIVER'","MB","Canada",49.59194183,-99.03333282,1414.92,NA,NA,FALSE,0,NA,NA,NA,NA,NA,NA,NA,NA,NA,NA,NA,NA,NA,NA,NA,NA
"CANOPEX","05NG012","'ELGIN CREEK NEAR SOURIS'","MB","Canada",49.59024811,-100.2356873,374.308,NA,NA,FALSE,0,NA,NA,NA,NA,NA,NA,NA,NA,NA,NA,NA,NA,NA,NA,NA,NA
"CANOPEX","08NH034","'MOYIE RIVER AT MOYIE'","BC","Canada",49.2583313,-115.8499985,723.518,"1950-01-01","1970-09-30",TRUE,21,0,7578,0,0,0.703157976122385,0.967288605252735,9,0.149605022074479,5,119.191551583534,0.1089,0.0967761904761905,0.157692222222222,9,396.481208640087,1.22372766109744
"CANOPEX","02YL001","'UPPER HUMBER RIVER NEAR REIDVILLE'","NL","Canada",49.24291992,-57.36024857,2115.79,"1953-01-01","2010-12-31",TRUE,58,0,21184,0,0,0.692593788027646,0.9034679232392,2,0.275682747082593,5,482.36068953215,0.5145,0.343704926108374,1.19447490842491,2,1180.26589398762,1.46315283115266
"CANOPEX","05NF006","'LIGHTNING CREEK NEAR CARNDUFF'","SK","Canada",49.22106171,-101.7189713,1021.31,NA,NA,FALSE,0,NA,NA,NA,NA,NA,NA,NA,NA,NA,NA,NA,NA,NA,NA,NA,NA
"CANOPEX","05NF008","'GRAHAM CREEK NEAR MELITA'","MB","Canada",49.26261139,-100.9980774,591.773,NA,NA,FALSE,0,NA,NA,NA,NA,NA,NA,NA,NA,NA,NA,NA,NA,NA,NA,NA,NA
"CANOPEX","05OF014","'SHANNON CREEK NEAR MORRIS'","MB","Canada",49.35483932,-97.42247009,692.87,NA,NA,FALSE,0,NA,NA,NA,NA,NA,NA,NA,NA,NA,NA,NA,NA,NA,NA,NA,NA
"CANOPEX","11AA026","'SAGE CREEK AT Q RANCH NEAR WILDHORSE'","AB","Canada",49.10771942,-110.223671,486.978,NA,NA,FALSE,0,NA,NA,NA,NA,NA,NA,NA,NA,NA,NA,NA,NA,NA,NA,NA,NA
"CANOPEX","05OC016","'DEADHORSE CREEK NEAR ROSENFELD'","MB","Canada",49.25080872,-97.54981232,943.829,NA,NA,FALSE,0,NA,NA,NA,NA,NA,NA,NA,NA,NA,NA,NA,NA,NA,NA,NA,NA
"CANOPEX","08NN002","'GRANBY RIVER AT GRAND FORKS'","BC","Canada",49.04417038,-118.4386063,2032.83,"1967-01-01","2010-12-31",TRUE,44,0,16071,0,0,0.668608407037289,0.939461331816637,1,0.220911680065852,4,144.905207823794,0.0854,0.081799025974026,0.188361893939394,9,473.264943242156,1.29347197998019
"CANOPEX","08PA001","'SKAGIT RIVER NEAR HOPE'","BC","Canada",49.04721832,-121.0958328,946.462,"1950-01-01","1955-09-30",FALSE,6,0,2099,0,0,0.717655190886284,0.948139334178283,9,0.301381026228582,5,546.379673982937,0.6463,0.605716666666667,1.08706333333333,9,1177.98299291913,1.14826196028507
"CANOPEX","11AB006","'LODGE CREEK AT INTERNATIONAL BOUNDARY'","SK","Canada",49.01667023,-109.75,1992.35,NA,NA,FALSE,0,NA,NA,NA,NA,NA,NA,NA,NA,NA,NA,NA,NA,NA,NA,NA,NA
"CANOPEX","08NP001","'FLATHEAD RIVER AT FLATHEAD'","MT","Canada",49.00056076,-114.476387,1125.71,"1952-01-01","2010-12-31",TRUE,50,0,18263,0,0,0.723388623950885,0.966582679799512,1,0.177239628139187,5,257.750353002065,0.29336,0.245859714285714,0.37719957537155,2,710.952162110403,1.58630467763623
"CANOPEX","02YR003","'INDIAN BAY BROOK NEAR NORTHWEST ARM'","NL","Canada",49.04217148,-53.88566971,565.99,"1981-01-01","2010-12-31",TRUE,30,0,10957,0,0,0.709624605591046,0.919508896462377,8,0.44544867972878,4,413.004506115677,0.5236,0.379308571428571,0.820758279569892,8,766.667683057851,1.21336270143357
"CANOPEX","11AE009","'ROCK CREEK BELOW HORSE CREEK NEAR INTERNATIONAL BOUNDARY'","MT","Canada",48.96944046,-106.8388901,839.275,"1979-01-01","2010-12-31",TRUE,31,0,11323,2346,20.72,0.52152243521199,0.814374149766813,12,0.172849192969591,3,1.59000375290135,0,5.99078341013825e-06,0.000807284079084287,1,14.3308760789512,0.881070816451543
"CANOPEX","01BH005","'DARTMOUTH (RIVIERE) EN AMONT DU RUISSEAU DU PAS DE DAME'","QC","Canada",48.97972107,-64.6986084,629.436,"1970-01-01","2004-09-30",TRUE,35,0,12692,0,0,0.714665146189778,0.932291178029147,1,0.164587452678585,5,219.036630572333,0.2073,0.182056734693878,0.396604448938322,2,748.784618603886,1.70111191191714
"CANOPEX","02QC001","'MADELEINE (RIVIERE) A RIVIERE-LA-MADELEINE'","QC","Canada",49.20278168,-65.29556274,1222.93,"1955-01-01","1995-12-31",TRUE,40,13,14610,0,0,0.733336780244608,0.952163679585536,2,0.170157841903887,5,284.94457394753,0.308,0.255852142857143,0.445831693548387,3,735.602998786089,1.66666188077508
"CANOPEX","04JC003","'SHEKAK RIVER AT HIGHWAY NO. 11'","ON","Canada",49.75556183,-84.40666962,3207.44,"1951-01-01","1986-12-31",TRUE,36,0,13149,0,0,0.7407735789695,0.998364535000039,2,0.2322784889782,5,161.143615248668,0.2136,0.178429761904762,0.242843369175627,3,355.070292035398,1.71941360884832
"CANOPEX","02YK004","'HINDS BROOK NEAR GRAND LAKE'","NL","Canada",49.07249832,-57.17943954,527.25,"1956-10-01","1979-12-31",TRUE,23,0,8127,49,0.6,0.712701916239624,0.936186490516816,8,0.290450206093784,5,486.863847904734,0.6768,0.535780745341615,1.16446979472141,8,982.490162860489,1.60712228204447
"CANOPEX","02RC011","'PERIBONCA (PETITE RIVIERE)'","QC","Canada",48.81417084,-72.0477829,982.626,"1974-10-16","2010-12-31",TRUE,36,15,12876,0,0,0.73973824255327,0.989534429465246,2,0.36321289796011,4,286.053499242881,0.3781,0.327840079365079,0.449315267947422,2,608.189366057954,2.02663387019757
"CANOPEX","02RF006","'CHAMOUCHOUANE (RIVIERE) EN AVAL DU PONT DE LA ROUTE NO 167'","QC","Canada",49.25667191,-73.70832825,4345.11,"1962-08-02","1992-12-31",TRUE,31,1,11111,0,0,0.764991107596972,0.997655021103524,2,0.244836151467165,5,352.964253581912,0.4931,0.440687557603687,0.489810322580645,3,607.04969023363,1.66338421444515
"CANOPEX","02BA002","'STEEL RIVER NEAR TERRACE BAY'","ON","Canada",48.77777863,-86.88443756,1240.29,"1970-01-01","1994-10-18",TRUE,25,13,9070,0,0,0.726034284744977,0.994925916226191,2,0.230995263445815,5,188.841094805904,0.2034,0.195446857142857,0.261048,3,394.429166842732,1.82929916867955
"CANOPEX","01BH002","'YORK (RIVIERE) A SUNNY BANK'","QC","Canada",48.8341713,-64.625,1020.18,"1950-01-01","1981-09-30",TRUE,32,0,11596,0,0,0.720754411350532,0.933275367200393,2,0.163407490348536,5,250.026849647332,0.2354,0.186977678571429,0.444430530973451,2,694.65070960516,1.49562318508055
"CANOPEX","02QB011","'CAP CHAT (RIVIERE) A CAP-CHAT'","QC","Canada",49.05638885,-66.67221832,753.843,"1967-01-01","1995-12-31",TRUE,29,0,10592,0,0,0.733443658618134,0.964143766071487,1,0.20334117162174,5,306.921374815764,0.3645,0.29268275862069,0.553189321468298,1,820.694777541998,1.88115397727214
"CANOPEX","02BB002","'BLACK RIVER NEAR MARATHON'","ON","Canada",48.68888855,-86.21250153,2165.72,"1968-01-01","1990-12-31",TRUE,23,0,8401,0,0,0.725296733174854,0.998356089283579,2,0.329686446934854,5,161.89596606737,0.166,0.150109316770186,0.207054923076923,2,386.938550889632,1.71153758991463
"CANOPEX","02SC002","'PORTNEUF (RIVIERE) EN AMONT DES CHUTES PHILIAS'","QC","Canada",48.66167068,-69.16693878,2425.42,"1974-01-01","1993-12-31",FALSE,19,0,6940,0,0,0.752017443369314,0.98161141957999,2,0.18058660005939,5,391.587109227797,0.4809,0.404442105263158,0.56131322160149,2,833.200872836421,1.64373165930358
"CANOPEX","02YJ001","'HARRYS RIVER BELOW HIGHWAY BRIDGE'","NL","Canada",48.57582855,-58.36264038,628.28,"1968-03-08","2010-12-31",TRUE,43,7,15646,0,0,0.726895330013171,0.881581915416962,7,0.383832712872685,5,653.491567778361,0.9585,0.702750166112957,1.93966301575394,7,1317.54404917764,1.33452174013285
"CANOPEX","08HA010","'SAN JUAN RIVER NEAR PORT RENFREW'","BC","Canada",48.57611084,-124.3111115,584.995,"1959-10-01","2010-12-31",TRUE,44,0,15798,0,0,0.693247440685091,0.958666063559815,8,0.404478352162238,11,907.579763394012,0.35548,0.313889285714286,0.728671867966992,8,2628.71740306367,1.50228184245699
"CANOPEX","01BG005","'CASCAPEDIA (RIVIERE) EN AVAL DU RUISSEAU BERRY'","QC","Canada",48.62833023,-66.1680603,1672.43,"1979-01-01","2010-12-31",TRUE,30,0,10957,0,0,0.734164555731514,0.975904311013309,2,0.206889222580004,5,345.727265090377,0.4133,0.352918571428571,0.494959504132231,2,811.646656115703,2.05293004972229
"CANOPEX","01BH007","'GRANDE-RIVIERE OUEST (LA)'","QC","Canada",48.47777939,-64.52861023,543.107,"1972-10-01","1996-12-31",TRUE,23,0,8127,0,0,0.714086354164058,0.965747466044509,2,0.228839669224795,5,257.470906706333,0.2545,0.209369565217391,0.385474396135266,2,766.108698309179,1.71566234695385
"CANOPEX","04JA002","'KABINAKAGAMI RIVER AT HIGHWAY NO. 11'","ON","Canada",49.74417114,-84.10360718,3033.31,"1951-01-01","1986-12-31",TRUE,36,0,13149,0,0,0.752783889282498,0.998714501565364,2,0.222207073429403,5,256.727804465239,0.3105,0.299334523809524,0.373286738351254,3,499.611180113078,1.64193885247228
"CANOPEX","01BD008","'MATAPEDIA (RIVIERE) PRES DE AMQUI'","QC","Canada",48.4916687,-67.44999695,557.344,"1982-10-01","2007-09-30",TRUE,25,11,8766,0,0,0.706475708531458,0.963336280990857,2,0.221320450090157,5,260.144324669413,0.3153,0.232581142857143,0.534138194444444,9,612.317518074688,1.39242047709643
"CANOPEX","02YO008","'GREAT RATTLING BROOK ABOVE TOTE RIVER CONFLUENCE'","NL","Canada",48.8266716,-55.52869034,785.406,"1984-01-01","2010-12-31",TRUE,27,0,9862,0,0,0.695903389374759,0.863224733484874,7,0.387118500931267,4,349.235374456893,0.3531,0.2192,0.96962962962963,7,884.301341148488,1.38852330368883
"CANOPEX","02RF009","'SAUMONS (RIVIERE AUX) PRES DE L''EMBOUCHURE'","QC","Canada",48.68360901,-72.51389313,773.914,"1984-01-01","2010-12-31",FALSE,19,0,6939,0,0,0.741132715576174,0.970647075274753,2,0.329090341627182,4,151.579390914554,0.1998,0.185983458646617,0.259113246268657,2,344.891313000786,1.92240476607824
"CANOPEX","02RH047","'SAINTE-MARGUERITE NORD-EST(RIVIERE) PRES DE LA RIV. STE.MARGUERITE-1'","QC","Canada",48.26721954,-69.90778351,1123.35,"1977-01-01","2001-09-30",TRUE,22,14,7943,0,0,0.733542875522819,0.987042320811571,2,0.210487697532913,5,374.694531140594,0.4138,0.367308441558442,0.520591935483871,3,842.850750543223,2.00339982775295
"CANOPEX","02YQ001","'GANDER RIVER AT BIG CHUTE'","NL","Canada",49.01628113,-54.85066986,4458.64,"1950-01-01","2010-12-31",TRUE,61,0,22280,0,0,0.710350646272786,0.891773426795215,8,0.474727774963461,5,439.197188491797,0.5523,0.435637236533958,1.04700412480169,8,855.33307209975,1.44312283995673
"CANOPEX","01BG008","'CASCAPEDIA (PETITE RIVIERE) A SAINT-EGAR'","QC","Canada",48.23083115,-65.73500061,1363.37,"1982-01-01","2001-09-30",TRUE,20,0,7213,0,0,0.731934049884902,0.982598972688094,2,0.226014630813592,5,296.86296970796,0.3739,0.317677142857143,0.475753097345133,2,695.873446988822,1.74323582389392
"CANOPEX","02YS001","'TERRA NOVA RIVER AT EIGHT MILE BRIDGES'","NL","Canada",48.44166946,-54.37250137,1172.46,"1955-01-01","1984-12-31",TRUE,29,0,10593,0,0,0.720201409779507,0.861391485604797,7,0.501437071739,5,526.724532893753,0.7052,0.53728275862069,1.32001045606229,7,988.054079865433,1.43228500692173
"CANOPEX","01BG009","'BONAVENTURE (RIVIERE) EN AMONT DU RUISSEAU CREUX'","QC","Canada",48.18611145,-65.55860901,1928.66,"1984-01-01","2010-12-31",TRUE,27,0,9862,0,0,0.729428941005357,0.985799690332422,2,0.250869909503629,5,261.529862019118,0.3351,0.274509259259259,0.414694167758847,2,655.675636697248,1.95201646753199
"CANOPEX","01BF001","'NOUVELLE (RIVIERE) AU PONT'","QC","Canada",48.15721893,-66.34944153,1159.47,"1964-05-16","2001-05-29",TRUE,38,17,13545,0,0,0.724267844172728,0.947462348176382,2,0.201428243215203,5,271.22586618645,0.2929,0.245148120300752,0.472765071770335,2,700.825794929,1.69139257568603
"CANOPEX","02JB004","'KINOJEVIS (RIVIERE) EN AVAL DU LAC PREISSAC'","QC","Canada",48.40555954,-78.36416626,999.933,"1950-01-01","1971-12-31",TRUE,22,0,8035,0,0,0.780777073869021,0.998873662173139,3,0.319435839821928,5,322.505708903347,0.5012,0.456916233766234,0.531532697947214,3,492.43529554238,1.36028538497844
"CANOPEX","02BD003","'MAGPIE RIVER NEAR MICHIPICOTEN'","ON","Canada",47.93888855,-84.83055878,2030.82,"1953-01-01","1989-12-31",TRUE,29,0,10592,0,0,0.743804876240248,0.995688893458045,2,0.351349644408667,5,214.385825097252,0.3046,0.273313793103448,0.463349084249084,2,418.221667462423,1.88868935848882
"CANOPEX","02ZE001","'SALMON RIVER AT LONG POND'","NL","Canada",47.94443893,-55.91389084,2721.7,"1950-01-01","1965-09-30",FALSE,16,0,5752,0,0,0.723127951430436,0.912051452486873,9,0.49206909700749,11,514.843386775971,0.6508,0.576899107142857,1.103059375,9,916.242782411504,1.34216550949521
"CANOPEX","02ZH001","'PIPERS HOLE RIVER AT MOTHERS BROOK'","NL","Canada",47.94667053,-54.28432846,776.563,"1952-11-01","2010-12-31",TRUE,59,0,21245,0,0,0.694458781570054,0.868911286810299,8,0.500124071011186,4,472.968456341163,0.4795,0.365829539951574,1.03786434927697,8,1031.4251811806,1.25077098576742
"CANOPEX","02RH048","'HA HA (RIVIERE)'","QC","Canada",48.27471924,-70.86778259,576.496,"1977-01-01","1994-12-31",FALSE,18,0,6574,0,0,0.768776997040461,0.957494282774868,1,0.37911788127816,5,231.94769238665,0.3792,0.322933333333333,0.488429211469534,1,431.496586089239,1.81564660210163
"CANOPEX","02RH049","'PETIT SAGUENAY (RIVIERE)'","QC","Canada",48.18611145,-70.05056,728.215,"1975-01-01","2000-09-30",TRUE,24,14,8674,0,0,0.736116121953304,0.967764593452168,2,0.240685949872464,5,250.802153056466,0.2848,0.233719642857143,0.438718289085546,2,640.984362068276,1.69748624538445
"CANOPEX","03AC001","'BELL (RIVIERE) A SENNETERRE-2'","QC","Canada",48.35139084,-77.27333069,2000.5,"1950-01-01","1963-12-31",FALSE,14,0,5113,0,0,0.784887149540375,0.991460715146037,3,0.364629679829468,5,331.774084686785,0.5269,0.460130612244898,0.550838479262673,3,490.698146925859,1.88829953847412
"CANOPEX","02ZD002","'GREY RIVER NEAR GREY RIVER'","NL","Canada",47.74330902,-56.93399811,1974.09,"1970-01-01","2010-12-31",TRUE,31,0,11323,0,0,0.70098456803033,0.813389328396782,2,0.433865676089736,4,336.826808989016,0.36338,0.255663594470046,1.43793995837669,8,897.380387700692,1.40685862766778
"CANOPEX","02ZF001","'BAY DU NORD RIVER AT BIG FALLS'","NL","Canada",47.74682999,-55.44021988,1221.33,"1952-01-01","2010-12-31",TRUE,58,0,21184,0,0,0.731963947128359,0.90281165378928,8,0.565586206492106,11,605.17882447662,0.8914,0.666088916256158,1.27251991101224,8,1031.05839590333,1.43093854034816
"CANOPEX","01BJ003","'JACQUET RIVER NEAR DURHAM CENTRE'","NB","Canada",47.89381027,-66.02522278,508.261,"1964-10-01","2010-12-31",TRUE,47,0,16893,0,0,0.713399247387525,0.941279451874136,2,0.29543456386288,4,218.699111298959,0.2244,0.186175987841945,0.417030177059276,2,656.510848935458,1.52344667071173
"CANOPEX","02RH035","'ECORCES (RIVIERE AUX) EN AMONT DU PONT-ROUTE 169'","QC","Canada",48.18222046,-71.64527893,1125.75,"1971-07-13","2010-12-31",TRUE,40,12,14429,0,0,0.751058394693273,0.990128717010927,2,0.276903766506189,5,394.768934228675,0.4851,0.432625357142857,0.54382770885029,3,781.706768204884,2.0031208919486
"CANOPEX","02NE007","'CROCHE (RIVIERE) A LA CROCHE'","QC","Canada",47.5841713,-72.74305725,1871.16,"1950-01-01","1965-12-31",FALSE,16,0,5844,0,0,0.750265137390222,0.996740635752947,2,0.323746183634637,4,341.734632370673,0.4225,0.314595535714286,0.45799092920354,2,633.332183517699,1.07323022605292
"CANOPEX","01BE001","'UPSALQUITCH RIVER AT UPSALQUITCH'","NB","Canada",47.83246994,-66.88707733,2305.77,"1950-01-01","2010-12-31",TRUE,61,0,22280,0,0,0.727931434363398,0.952920364952663,2,0.293915390416325,5,227.687054306918,0.2769,0.235177985948478,0.451828206616367,2,566.332856998373,1.57905546088078
"CANOPEX","02RG005","'METABETCHOUANE (RIVIERE) EN AMONT DE LA CENTRALE S.R.P.C.'","QC","Canada",48.375,-71.99360657,2263.79,"1965-01-01","2010-12-31",TRUE,34,18,12418,0,0,0.743714420046531,0.983711644075889,2,0.342850456773561,5,333.293678426038,0.4504,0.374271428571429,0.537561979166667,2,657.274359548681,1.91143748021408
"CANOPEX","02PE009","'GOUFFRE (RIVIERE DU) A BAIE-SAINT-PAUL'","QC","Canada",47.44749832,-70.51055908,875.648,"1968-01-01","1995-12-31",TRUE,28,0,10227,0,0,0.764095921626092,0.972759666709561,2,0.275567648196681,5,290.230286007891,0.4243,0.371219387755102,0.563877876106195,2,636.353887673831,2.08575041459078
"CANOPEX","01BC001","'RESTIGOUCHE RIVER BELOW KEDGWICK RIVER'","NB","Canada",47.66707993,-67.483078,3324.92,"1962-10-01","2010-12-31",TRUE,49,0,17624,0,0,0.728898047848562,0.952255258636634,2,0.298726234292776,5,266.892966046309,0.3274,0.271159766763848,0.494556194690265,2,649.272474939423,1.61083836124265
"CANOPEX","02PG004","'LOUP (RIVIERE DU) A LA ROUTE NO. 289'","QC","Canada",47.58250046,-69.66972351,454.829,"1957-01-01","1978-12-31",TRUE,22,0,8035,0,0,0.69723180534002,0.957050954553782,2,0.248825643819349,4,220.725576078346,0.1938,0.120522077922078,0.357502737520129,2,700.776885741473,1.49051635656017
"CANOPEX","01BQ001","'NORTHWEST MIRAMICHI RIVER AT TROUT BROOK'","NB","Canada",47.09474945,-65.83650208,1014.18,"1961-10-01","2010-12-31",TRUE,50,0,17989,0,0,0.711410629215059,0.919474387449023,2,0.304718379248343,4,265.062803850919,0.3067,0.253855714285714,0.698859465317919,2,670.44628849829,1.63128690715184
"CANOPEX","02PG022","'OUELLE (RIVIERE) PRES DE SAINT-GABRIEL-DE-KAMOURASKA'","QC","Canada",47.38111115,-69.95806122,814.979,"1983-01-01","2010-12-31",TRUE,27,0,9861,0,0,0.699876888964765,0.95939548155507,2,0.195589203002093,4,172.417415842339,0.123,0.0838507936507936,0.276405774278215,2,599.313043161271,1.55499606704217
"CANOPEX","02PB006","'SAINTE-ANNE (RIVIERE) (BRAS DU NORD DE LA) EN AMONT'","QC","Canada",46.97166824,-71.85443878,674.875,"1966-01-01","2010-12-31",TRUE,45,0,16436,0,0,0.74363238265912,0.966357779903118,2,0.358449227195148,5,419.192654252443,0.5697,0.494195555555555,0.758929425649095,2,891.305225029286,2.19071114807122
"CANOPEX","02DC012","'STURGEON RIVER AT UPPER GOOSE FALLS'","ON","Canada",46.97142029,-80.46324921,986.635,"1986-01-01","2010-12-31",TRUE,25,0,9131,0,0,0.73515206818053,0.977208977759168,2,0.365986586274744,4,227.166842079302,0.3161,0.244844571428571,0.512006798866856,2,474.361826368272,1.84155003570186
"CANOPEX","01BP001","'LITTLE SOUTHWEST MIRAMICHI RIVER AT LYTTLETON'","NB","Canada",46.93597031,-65.90738678,1373.32,"1951-06-08","2010-12-31",TRUE,60,7,21764,0,0,0.722200985508948,0.929321674840382,2,0.340087714718234,5,334.924519176729,0.4366,0.354975952380952,0.829915896820636,2,759.083714409442,1.56694962850905
"CANOPEX","02KJ007","'KIPAWA (RIVIERE) AU LAC DUMOINE'","QC","Canada",46.97027969,-78.04250336,2310,"1968-01-01","1996-12-31",TRUE,29,0,10593,46,0.43,0.676117877792035,0.995685128898636,2,0.210975027376768,5,33.2986984399321,0.0165,0.0119137931034483,0.0415159065628476,3,90.7680415979815,1.03186470105424
"CANOPEX","01BO002","'RENOUS RIVER AT MCGRAW BROOK'","NB","Canada",46.82138824,-66.11472321,649.092,"1965-09-14","1995-03-31",TRUE,31,13,10804,0,0,0.701078376587023,0.895849597469944,1,0.291925295051767,4,274.541236405683,0.3141,0.237971428571429,0.723961957730812,8,712.518343798743,1.69503776192815
"CANOPEX","02KJ003","'DUMOINE (RIVIERE) AU LAC DUMOINE'","QC","Canada",46.82221985,-77.86833191,357.827,"1968-01-01","1996-12-31",TRUE,29,0,10593,0,0,0.792343281711093,0.991775983792097,2,0.382658657146836,5,1525.24101796075,2.9458,2.60735911330049,3.4174638487208,3,2284.32374770395,1.51339437565178
"CANOPEX","02LH002","'DESERT (RIVIERE) EN AMONT DE LA RIVIERE DE L''AIGLE'","QC","Canada",46.47360992,-76.0430603,2143.23,"1960-01-01","1971-12-31",FALSE,12,0,4383,0,0,0.75680386250089,0.966914455336048,2,0.336369750807792,5,179.261706862028,0.2717,0.241219047619048,0.401746944444444,9,330.99723340708,1.59141031627276
"CANOPEX","02NF003","'MATAWIN (RIVIERE) A SAINT-MICHEL-DES-SAINTS'","QC","Canada",46.68582916,-73.91416931,1451.11,"1950-01-01","2010-12-31",TRUE,60,0,21914,0,0,0.745985030954319,0.963369860390223,2,0.395699497376222,4,279.024818147396,0.4299,0.329101428571429,0.676412809917355,2,538.453260344353,1.88285146282174
"CANOPEX","02PJ007","'BEAURIVAGE (RIVIERE) A SAINTE-ETIENNE'","QC","Canada",46.65916824,-71.28861237,702.748,"1950-01-01","2004-09-30",TRUE,55,0,19997,0,0,0.707019582917739,0.89683191000489,2,0.236127316431012,4,202.382249659661,0.1881,0.130566493506493,0.637101447876448,2,618.007629261079,1.71921146301982
"CANOPEX","02DD012","'VEUVE RIVER NEAR VERNER'","ON","Canada",46.4082489,-80.12330627,938.486,"1973-04-16","2010-12-31",TRUE,22,15,7945,0,0,0.68306421254534,0.936370126666741,2,0.270413660156271,4,112.719187269072,0.0626,0.0432058441558442,0.144037536656892,8,389.093346027227,1.45543835625423
"CANOPEX","01AN002","'SALMON RIVER AT CASTAWAY'","NB","Canada",46.29072189,-65.7227478,1057.74,"1974-01-01","2010-12-31",TRUE,37,0,13514,0,0,0.695980485992694,0.884994795400903,9,0.283493873773042,4,248.204310045995,0.2254,0.180929343629344,0.536885945945946,9,660.210737436959,1.46407627585758
"CANOPEX","02PJ030","'FAMINE (RIVIERE) A SAINT-GEORGES'","QC","Canada",46.16416931,-70.6397171,711.909,"1965-01-01","2010-12-31",TRUE,44,0,16070,0,0,0.68763240673632,0.87970649227745,2,0.24028270121323,4,203.840682242991,0.1408,0.0772600649350649,0.616482206119163,2,669.630509725882,1.65021279386401
"CANOPEX","01AL002","'NASHWAAK RIVER AT DURHAM BRIDGE'","NB","Canada",46.12591934,-66.61131287,1527.34,"1962-01-01","2010-12-31",TRUE,49,0,17897,0,0,0.705567504461165,0.890648676898776,8,0.304170195537621,4,300.90230551536,0.3355,0.261862682215743,0.749900263331139,8,740.134405190516,1.44747168788374
"CANOPEX","01AP002","'CANAAN RIVER AT EAST CANAAN'","NB","Canada",46.07236099,-65.36638641,670.376,"1963-01-01","2010-12-31",TRUE,48,0,17532,0,0,0.678672695519028,0.855821974320209,8,0.306208366137638,4,204.856906828226,0.11113,0.0770032738095238,0.545302916666667,9,635.187921036136,1.40438184395494
"CANOPEX","02PL001","'BECANCOUR (RIVIERE) A LYSTER'","QC","Canada",46.36888885,-71.62249756,1430.11,"1950-01-01","1968-12-31",FALSE,19,0,6940,0,0,0.704427152538489,0.91650280333379,2,0.234657986694058,4,239.57784603361,0.2429,0.159459398496241,0.613956983240223,2,615.214337635989,1.32951126510218
"CANOPEX","02LD002","'PETITE NATION (RIVIERE DE LA) PRES DE COTE-SAINT-PIERRE'","QC","Canada",45.82749939,-75.07167053,1259.07,"1950-01-01","1968-12-31",FALSE,19,0,6940,0,0,0.741228858959169,0.926152313465317,3,0.399294767123755,5,250.893142741057,0.3301,0.309975187969925,0.542015964912281,9,444.485890992845,1.38804553825723
"CANOPEX","02LH004","'PICANOC (RIVIERE) PRES DE WRIGHT'","QC","Canada",46.07749939,-76.06944275,1258.64,"1976-01-01","2001-09-30",TRUE,26,0,9405,0,0,0.745456943187017,0.968442801340638,9,0.353077751659017,4,240.668249882257,0.3693,0.316368681318681,0.417809615384615,9,441.254118608059,2.20375274678741
"CANOPEX","02OB037","'ACHIGAN (RIVIERE DE L'') A L''EPIPHANIE'","QC","Canada",45.84638977,-73.49305725,650.844,"1980-01-01","2010-12-31",TRUE,31,0,11323,0,0,0.707336559613603,0.907430516422937,8,0.263350248659027,4,200.619160819779,0.1912,0.138802764976959,0.40845452653486,8,539.468609161879,1.89194886514057
"CANOPEX","01AP004","'KENNEBECASIS RIVER AT APOHAQUI'","NB","Canada",45.70138931,-65.6016922,1144.48,"1961-06-01","2010-12-31",TRUE,50,0,18111,0,0,0.697800028471194,0.920488385151262,8,0.398212255006179,4,292.282016629889,0.268,0.218742,0.558230774193548,8,697.339655227793,1.45223558719136
"CANOPEX","01AM001","'NORTH BRANCH OROMOCTO RIVER AT TRACY'","NB","Canada",45.67377853,-66.68289185,589.28,"1962-10-01","2010-12-31",TRUE,49,0,17624,0,0,0.674889733776934,0.903064534686104,9,0.34111240410863,4,236.929967039388,0.11716,0.0939839650145772,0.413491527777778,9,659.408865605247,1.23252558965739
"CANOPEX","02OA035","'MILLE ILES (RIVIERE DES) EN AVAL DU LAC DES DEUX MONTAGNES'","QC","Canada",45.54167175,-73.87306213,299.307,"1950-01-01","1961-02-28",FALSE,12,0,4077,0,0,0.759129074673847,0.926933140561992,2,0.358603708449526,4,13865.6795769139,21.3325,18.8873916666667,30.7601581818182,9,23048.752127561,1.25010477026298
"CANOPEX","01EO001","'ST. MARYS RIVER AT STILLWATER'","NS","Canada",45.17438889,-61.97991943,1423.92,"1950-01-01","2010-12-31",TRUE,61,0,22280,0,0,0.681131106505666,0.868563527657235,8,0.456673054797997,11,389.246212334644,0.2457,0.162977283372365,0.899790692755156,7,960.929905381388,1.23445254947913
"CANOPEX","01EF001","'LAHAVE RIVER AT WEST NORTHFIELD'","NS","Canada",44.4474411,-64.59118652,1290.68,"1950-01-01","2010-12-31",TRUE,61,0,22280,0,0,0.667971671662941,0.895450835129798,8,0.393510297813262,11,385.63866069908,0.2008,0.151014051522248,0.595423691168694,8,870.46901384166,1.2997171107759
"CANOPEX","01ED005","'MERSEY RIVER BELOW GEORGE LAKE'","NS","Canada",44.33314133,-65.20507813,739.27,"1968-06-10","2010-12-31",TRUE,38,9,13729,0,0,0.672659525789601,0.924090695663148,9,0.419746833356152,12,455.109206930091,0.2863,0.239267669172932,0.573414210526316,9,889.778332745304,1.24247060935867
"CANOPEX","02GG004","'BEAR CREEK ABOVE WILKESPORT'","ON","Canada",42.76443863,-82.34166718,579.583,"1964-10-01","1983-12-31",TRUE,20,0,7031,49,0.7,0.666559993761718,0.890411407255024,8,0.396532064437317,12,58.4034475626177,0.0085,0.00495214285714286,0.0832847198641766,8,297.650490494894,1.28835909219874
"CANOPEX","07GD001","'BEAVERLODGE RIVER NEAR BEAVERLODGE'","AB","Canada",55.18927002,-119.4372482,1579.06,"1980-01-01","1986-12-31",FALSE,7,0,2557,513,20.06,0.524987681489836,0.84958183495477,11,0.244669854576919,4,8.0856129797494,0,0.000663265306122449,0.00386820276497696,1,36.6238448773449,1.12743394143973
"CANOPEX","06BB005","'CANOE RIVER NEAR BEAUVAL'","SK","Canada",55.39693832,-108.0188904,4606.28,"1973-10-11","2010-12-31",TRUE,37,10,13241,83,0.63,0.743675314987325,0.960959300413366,2,0.352586714150674,5,45.4290796953484,0.0279,0.060646332046332,0.0842975806451613,3,70.6947988716791,1.02257818864345
"CANOPEX","08EE003","'BULKLEY RIVER NEAR HOUSTON'","BC","Canada",54.39582825,-126.7083282,2322.79,"1971-01-01","1971-12-31",FALSE,1,0,365,0,0,0.725589116547869,1.02624411796315,11,0.0775291444740185,5,74.6677823875364,0.0465,0.0347285714285714,0.0381870967741935,1,246.1851,1.4654953398546
"CANOPEX","08ED002","'MORICE RIVER NEAR HOUSTON'","BC","Canada",54.11806107,-127.4238892,1846.77,"1962-01-01","2010-12-31",TRUE,49,0,17897,0,0,0.726759886001205,0.99915303649955,3,0.239091542322627,6,698.153349475235,0.7298,0.672648979591837,0.818424818959842,3,1279.27203349062,1.36916461405052
"CANOPEX","05KE005","'WHITE FOX RIVER NEAR GARRICK'","SK","Canada",53.42221832,-104.3416672,1918.77,NA,NA,FALSE,0,NA,NA,NA,NA,NA,NA,NA,NA,NA,NA,NA,NA,NA,NA,NA,NA
"CANOPEX","08KD003","'WILLOW RIVER NEAR WILLOW RIVER'","BC","Canada",54.06861115,-122.4638901,3058.21,"1953-04-01","1975-12-31",TRUE,23,0,8310,0,0,0.727140374450043,0.996367437643217,2,0.228627984904718,5,220.069088285495,0.2599,0.239250931677019,0.322447342995169,2,485.361922244181,1.54396017892424
"CANOPEX","08KD004","'BOWRON RIVER NEAR HANSARD'","BC","Canada",54.03610992,-121.8791733,3499.24,"1958-01-01","1976-12-31",FALSE,15,0,5478,0,0,0.7191624486051,0.988641651861982,2,0.234416063335693,5,334.005116041632,0.3778,0.344159047619048,0.464699527186761,2,672.726200094563,1.65598657841681
"CANOPEX","05LB002","'ETOMAMI RIVER NEAR BERTWELL'","SK","Canada",52.59222031,-102.5650024,1909.47,NA,NA,FALSE,0,NA,NA,NA,NA,NA,NA,NA,NA,NA,NA,NA,NA,NA,NA,NA,NA
"CANOPEX","08LA007","'CLEARWATER RIVER AT OUTLET OF CLEARWATER LAKE'","BC","Canada",52.13888931,-120.1916733,3002.86,"1958-01-01","1995-04-28",TRUE,38,2,13634,0,0,0.689607150642744,0.998246739767759,2,0.225714222177864,5,644.640409293694,0.6013,0.552240977443609,0.655042684063374,2,1415.99116944172,1.4633494952129
"CANOPEX","08FB007","'BELLA COOLA RIVER ABOVE BURNT BRIDGE CREEK'","BC","Canada",52.42221832,-126.1580582,3595.28,"1965-05-12","2009-12-31",TRUE,40,11,14489,0,0,0.697252663054409,0.981622087318144,2,0.318352816737068,5,403.403626000655,0.3725,0.355243928571429,0.48305988420182,3,793.197543414178,1.5635503776636
"CANOPEX","05DB001","'CLEARWATER RIVER NEAR ROCKY MOUNTAIN HOUSE'","AB","Canada",52.34444046,-114.9361115,3153.21,"1954-01-01","1974-12-31",TRUE,21,0,7670,0,0,0.717086833007501,0.975186314794604,1,0.398718783756797,6,132.117109073359,0.163,0.122478911564626,0.192300153609831,1,242.672769099815,1.99738186731894
"CANOPEX","05LE001","'SWAN RIVER AT SWAN RIVER'","MB","Canada",52.12071991,-101.2516708,4078.47,"1951-01-01","1960-09-30",FALSE,10,0,3561,68,1.91,0.71646820640186,0.964791763095231,12,0.251301272989914,4,22.075489837208,0.0096,0.00888,0.0119837455830389,2,71.8254348763251,1.09745912989838
"CANOPEX","08LB020","'BARRIERE RIVER AT THE MOUTH'","BC","Canada",51.18000031,-120.1305618,1146.79,"1953-01-01","2010-12-31",TRUE,52,0,18993,0,0,0.719655969803319,0.972564068267817,1,0.195678083894099,5,157.583693932564,0.1808,0.166197802197802,0.253703131381892,2,404.237337678693,1.30890335420808
"CANOPEX","05MD005","'SHELL RIVER NEAR INGLIS'","MB","Canada",50.96334076,-101.3187714,1875.38,"1957-01-01","2010-12-31",TRUE,52,0,18993,85,0.45,0.745725850064697,0.95755516782441,1,0.311053340890912,4,22.9986116109099,0.0256,0.02115,0.0391480769230769,1,51.3989353131382,1.66725040228058
"CANOPEX","05LJ011","'WILSON RIVER NEAR DAUPHIN'","MB","Canada",51.20832825,-100.1791687,937.34,NA,NA,FALSE,0,NA,NA,NA,NA,NA,NA,NA,NA,NA,NA,NA,NA,NA,NA,NA,NA
"CANOPEX","05MF001","'LITTLE SASKATCHEWAN RIVER NEAR MINNEDOSA'","MB","Canada",50.35881042,-99.90751648,2621.66,"1972-01-01","2010-12-31",TRUE,39,0,14245,0,0,0.705806974414548,0.985325254984329,1,0.234805038139903,4,17.7696705308377,0.0081,0.00867509157509157,0.0222252268602541,2,48.7964678905487,1.24625758778282
"CANOPEX","08NH001","'DUNCAN RIVER NEAR HOWSER'","BC","Canada",50.28583145,-116.9455566,2115.35,"1950-01-01","1967-04-27",FALSE,18,3,6329,0,0,0.684863342924644,0.994822347171511,2,0.243704782288658,5,638.827150034398,0.6045,0.588288888888889,0.652087634408602,3,1444.25770452297,1.49400564677649
"CANOPEX","08NH007","'LARDEAU RIVER AT MARBLEHEAD'","BC","Canada",50.26306152,-116.9672165,1693.85,"1950-01-01","2010-12-31",TRUE,54,0,19723,0,0,0.710115497148291,0.989389486639274,2,0.245900539877335,5,508.45704509896,0.6274,0.569030158730159,0.686034098360656,2,1090.50629179114,1.46754535117318
"CANOPEX","08NK016","'ELK RIVER NEAR NATAL'","BC","Canada",49.86611176,-114.8683319,1820.4,"1950-10-01","2010-12-31",TRUE,57,0,20546,0,0,0.718682794004312,0.995179000185465,2,0.234854847857617,5,195.944086597882,0.2373,0.205023558897243,0.256762262958281,2,448.396487347794,1.43452676058542
"CANOPEX","05OJ002","'COOKS CREEK NEAR EAST SELKIRK'","MB","Canada",50.14028168,-96.83000183,534.514,NA,NA,FALSE,0,NA,NA,NA,NA,NA,NA,NA,NA,NA,NA,NA,NA,NA,NA,NA,NA
"CANOPEX","08NJ013","'SLOCAN RIVER NEAR CRESCENT VALLEY'","BC","Canada",49.46055984,-117.5644379,3310.55,"1950-01-01","2010-12-31",TRUE,61,0,22280,0,0,0.720433556382271,0.986875670921953,1,0.247597010258134,5,405.460648414072,0.5428,0.51291569086651,0.62841230412072,2,877.475926482593,1.52892043883079
"CANOPEX","08NG012","'ST. MARY RIVER AT WYCLIFFE'","BC","Canada",49.60028076,-115.8627777,2378.99,"1950-01-01","1995-03-30",TRUE,43,1,15430,0,0,0.710858570944244,0.985641271000645,1,0.194140995743428,5,255.888447451211,0.288,0.262278073089701,0.316338879736409,2,682.223014472413,1.64321811284587
"CANOPEX","05OF020","'MORRIS RIVER NEAR ROSENORT'","MB","Canada",49.49008179,-97.48166656,2296.02,NA,NA,FALSE,0,NA,NA,NA,NA,NA,NA,NA,NA,NA,NA,NA,NA,NA,NA,NA,NA
"CANOPEX","08MF003","'COQUIHALLA RIVER NEAR HOPE'","BC","Canada",49.37527847,-121.4194412,756.962,"1958-01-01","1982-12-31",TRUE,22,0,8035,0,0,0.717540671591994,0.927533591276731,9,0.407873671390916,5,667.861356191475,0.9051,0.719180519480519,1.28998348484848,9,1337.27939243888,1.47496616088172
"CANOPEX","05PH003","'WHITEMOUTH RIVER NEAR WHITEMOUTH'","MB","Canada",49.93878174,-95.95683289,3676.33,"1957-01-01","2010-12-31",TRUE,54,11,19723,0,0,0.677223275919451,0.992675864011908,1,0.238930944006294,4,43.1470047576216,0.0082,0.0119843915343915,0.0218992131147541,2,127.179643648681,1.17255668801298
"CANOPEX","01BH001","'DARTMOUTH (RIVIERE) PRES DE CORTEREAL'","QC","Canada",48.93305969,-64.63555908,734.26,"1950-01-01","1969-12-31",TRUE,20,0,7305,0,0,0.714109828612396,0.983171725874656,2,0.146367759969348,5,247.319019666625,0.2271,0.165557857142857,0.403833982300885,2,863.238686504425,1.42172519225689
"CANOPEX","01BG001","'CASCAPEDIA (PETITE RIVIERE) EN AMONT DU PONT'","QC","Canada",48.18917084,-65.81194305,1430.16,"1962-01-01","1980-12-31",FALSE,19,0,6940,0,0,0.725926161843396,0.949534873074609,2,0.182783466996697,5,317.023879907826,0.3305,0.239251879699248,0.493769273743017,2,734.362455454278,1.5754776529557
"CANOPEX","02YS005","'TERRA NOVA RIVER AT GLOVERTOWN'","NL","Canada",48.66275024,-54.01525116,1891.17,"1985-01-01","2010-12-31",TRUE,26,0,9496,0,0,0.721293622457744,0.908045973387349,8,0.446851059175505,4,457.525461571477,0.6396,0.476321978021978,1.00043622828784,8,834.195883745546,1.37919973531295
"CANOPEX","01BD002","'MATAPEDIA (RIVIERE) EN AMONT DE LA RIVIERE ASSEMETQUAGAN'","QC","Canada",48.08666992,-67.10056305,2772.12,"1970-01-01","1992-12-31",TRUE,23,23,8401,0,0,0.732356147418448,0.93438481065764,1,0.223086630821858,5,275.166757811314,0.3335,0.298953416149068,0.606543057503506,3,656.914362061471,1.60821724386591
"CANOPEX","02JB003","'KINOJEVIS (RIVIERE) EN AVAL DE LA RIVIERE VILLEMONTEL'","QC","Canada",48.45582962,-78.36110687,1680.7,"1950-01-01","1965-12-31",FALSE,16,0,5844,0,0,0.776071214530022,0.99794150472171,2,0.420414232435733,5,279.940057337328,0.3989,0.339425,0.452898991935484,3,500.186276714602,2.04386215405488
"CANOPEX","02PG006","'LOUP (RIVIERE DU) A SAINT-JOSEPH-DE-KAMOURASKA'","QC","Canada",47.61249924,-69.64582825,461.288,"1979-01-01","2010-12-31",TRUE,32,0,11688,0,0,0.70312022787698,0.937989451467531,2,0.229189002814851,4,240.716588318455,0.2304,0.156091517857143,0.549834845132743,2,677.968538163717,1.65825282155477
"CANOPEX","02PL007","'BECANCOUR (RIVIERE) PRES DE SAINT-SYLVERE'","QC","Canada",46.19472122,-72.28388977,2374.45,"1970-01-01","2001-09-30",TRUE,27,0,9769,0,0,0.704047377553019,0.870726351575628,1,0.309214853375977,4,280.966012513024,0.3337,0.215439153439153,0.897410752688172,7,707.496449351684,1.65664350902502
"CANOPEX","02LD001","'PETITE NATION (RIVIERE DE LA) A PORTAGE-DE-LA-NATION'","QC","Canada",45.67110825,-75.03556061,1974.58,"1950-01-01","1971-12-31",TRUE,22,0,8035,0,0,0.732916161163813,0.925784183787518,2,0.302515599810545,4,251.518739556527,0.3334,0.300608441558442,0.543282575757576,9,466.319215253989,1.32036026408114
"CANOPEX","08JA002","'OOTSA RIVER AT OOTSA LAKE'","BC","Canada",53.625,-125.7333298,4120.09,"1950-01-01","1952-09-17",FALSE,3,13,1004,0,0,0.751769569306413,1,2,0.219440938211754,6,340.408752462338,0.4173,0.377066666666667,0.412237634408602,3,680.671860458365,0.94379069346385
"CANOPEX","08FB002","'BELLA COOLA RIVER NEAR HAGENSBORG'","BC","Canada",52.44221878,-126.332222,4012.82,"1950-01-01","1968-09-30",FALSE,17,0,6117,0,0,0.706393463424602,0.972256048656411,3,0.313386011495827,6,494.673866709618,0.5167,0.440599159663865,0.613829032258065,3,948.605570269608,1.02581598995803
"CANOPEX","05LE006","'SWAN RIVER NEAR MINITONAS'","MB","Canada",52.19599915,-101.0608292,4193.76,"1960-10-01","1996-12-31",TRUE,37,0,13241,163,1.23,0.718840024853476,0.984694033902908,1,0.247546775111597,4,13.3981371961864,0.0059,0.00634903474903475,0.010946017699115,2,49.5734854174971,1.42305671219798
"CANOPEX","08GD006","'HOMATHKO RIVER AT TRAGEDY CANYON'","BC","Canada",51.26610947,-124.88694,4038.64,"1962-01-01","1995-03-31",FALSE,10,0,3377,0,0,0.678005716948823,0.968686409979856,1,0.303450739083368,6,484.077349336031,0.50832,0.430708571428571,0.622556774193548,1,1022.09883281324,1.68992180092383
"CANOPEX","05SA002","'BROKENHEAD RIVER NEAR BEAUSEJOUR'","MB","Canada",50.0901413,-96.42832947,1485.08,"1958-01-01","1996-12-31",TRUE,36,0,13149,239,1.82,0.670025684717025,0.947401139332548,1,0.225045860029848,4,19.2581822401865,0.0016,0.00169920634920635,0.00453923303834808,2,75.6712901917404,1.14396102417877
"CANOPEX","08NK002","'ELK RIVER AT FERNIE'","BC","Canada",49.50999832,-115.0713882,3064.78,"1970-01-01","2010-12-31",TRUE,41,0,14975,0,0,0.724053492615735,0.96994429477859,2,0.254293128633769,5,227.263264406095,0.3101,0.249559581881533,0.352953022452504,2,480.734616335987,1.51571618985643
"CANOPEX","08NK012","'ELK RIVER AT STANLEY PARK'","BC","Canada",49.3116684,-115.0511093,3454.92,"1950-01-01","1969-12-31",TRUE,20,0,7305,0,0,0.709135456458137,0.965683850788851,1,0.220558996907932,5,254.440699072135,0.3276,0.251621428571429,0.384035161290323,1,592.76342039823,1.54836128460551
"CANOPEX","07LE004","'OTHERSIDE RIVER AT OUTLET OF MERCREDI LAKE'","SK","Canada",58.93,-107.49,2761,"1977-01-01","1995-05-31",FALSE,19,0,6725,0,0,0.860819338721203,0.988902715222589,2,0.515874513166156,5,152.119126206003,0.30866,0.316535338345865,0.363178171641791,2,187.829374186087,1.36657513657334
"CANOPEX","10CD004","'BOUGIE CREEK AT KILOMETRE 368 ALASKA HIGHWAY'","BC","Canada",58.03,-122.72,336,"1981-07-06","2010-12-31",TRUE,29,5,10411,2101,20.19,0.484161431925857,0.868222711627268,11,0.169480548965804,5,47.8213635633695,0,0.000408866995073892,0.0008897597977244,2,243.845004562178,1.14999843526345
"CANOPEX","07MA004","'WILLIAM RIVER ABOVE CARSWELL RIVER'","SK","Canada",58.81,-109,3985,"1977-01-01","1995-05-31",FALSE,18,0,6360,0,0,0.833111492896622,0.982086152971084,1,0.444673319177897,5,114.06010417873,0.21158,0.203647619047619,0.244099606299213,2,150.3211111986,1.80623503734288
"CANOPEX","07JC001","'LAFOND CREEK NEAR RED EARTH CREEK'","AB","Canada",57.07,-115.1,588,NA,NA,FALSE,0,NA,NA,NA,NA,NA,NA,NA,NA,NA,NA,NA,NA,NA,NA,NA,NA
"CANOPEX","08CG006","'FORREST KERR CREEK ABOVE 460 M CONTOUR'","BC","Canada",56.92,-130.72,318,"1973-01-01","1993-12-31",TRUE,20,0,7305,0,0,0.619415609659167,0.996516570404139,1,0.16106257426959,6,953.015396573696,0.2771,0.235291428571429,0.302106451612903,3,2815.73942610619,1.37336674090696
"CANOPEX","07FD011","'HINES CREEK ABOVE GERRY LAKE'","AB","Canada",56.33,-118.27,380,NA,NA,FALSE,0,NA,NA,NA,NA,NA,NA,NA,NA,NA,NA,NA,NA,NA,NA,NA,NA
"CANOPEX","08DC006","'BEAR RIVER ABOVE BITTER CREEK'","BC","Canada",56.04,-129.93,311,"1967-04-14","1999-03-31",TRUE,33,13,11688,0,0,0.638865238142011,0.985561608446221,1,0.28563784954141,6,1123.0609704582,0.6945,0.581094805194805,0.952630199115044,2,2571.11294457865,1.48003477067715
"CANOPEX","08JD006","'DRIFTWOOD RIVER ABOVE KASTBERG CREEK'","BC","Canada",55.98,-126.68,357,"1979-10-11","2010-12-31",TRUE,29,10,10319,0,0,0.713299627616323,0.999021032939109,2,0.117231948265737,5,247.728887344147,0.1985,0.183186206896552,0.221804838709677,3,735.515737167335,1.48182264380518
"CANOPEX","05TG006","'SAPOCHI RIVER NEAR NELSON HOUSE'","MB","Canada",55.91,-98.49,406,"1993-05-01","2010-12-31",FALSE,17,0,6089,0,0,0.732776429909131,0.999552387611607,2,0.250972660231693,5,60.9662264310349,0.0468,0.0501806722689076,0.0591006048387097,3,165.411645376757,1.69953718531915
"CANOPEX","07BF009","'SALT CREEK NEAR GROUARD'","AB","Canada",55.61,-116.1,447,NA,NA,FALSE,0,NA,NA,NA,NA,NA,NA,NA,NA,NA,NA,NA,NA,NA,NA,NA,NA
"CANOPEX","07CA012","'LOGAN RIVER NEAR THE MOUTH'","AB","Canada",55.17,-111.72,368,NA,NA,FALSE,0,NA,NA,NA,NA,NA,NA,NA,NA,NA,NA,NA,NA,NA,NA,NA,NA
"CANOPEX","07FB009","'FLATBED CREEK AT KILOMETRE 110 HERITAGE HIGHWAY'","BC","Canada",55.09,-120.94,472,"1983-01-01","2010-12-31",TRUE,27,0,9862,0,0,0.724089045866697,0.996422366633361,2,0.187252771972736,5,88.5409110191729,0.0699,0.0572449735449735,0.0866104849279161,2,273.385363948352,1.54674757202144
"CANOPEX","07GC002","'PINTO CREEK NEAR GRANDE PRAIRIE'","AB","Canada",54.84,-119.39,496,NA,NA,FALSE,0,NA,NA,NA,NA,NA,NA,NA,NA,NA,NA,NA,NA,NA,NA,NA,NA
"CANOPEX","08JE004","'TSILCOH RIVER NEAR THE MOUTH'","BC","Canada",54.61,-124.24,352,"1976-01-01","2010-12-31",TRUE,34,0,12418,0,0,0.737807954125992,0.969152054908258,1,0.2563694934838,4,67.381366816334,0.0847,0.0707134453781513,0.117844781783681,8,219.768132377451,1.64237602421756
"CANOPEX","08KC003","'MUSKEG RIVER NORTH OF JOANNE LAKE'","BC","Canada",54.61,-123.24,303,"1975-06-12","1998-12-31",TRUE,22,11,7883,0,0,0.742525070916619,0.965673427232137,9,0.25427689541243,5,78.9223711684038,0.1106,0.0984311688311688,0.143998093841642,8,214.368342783919,1.5634050709247
"CANOPEX","08EG011","'ZYMAGOTITZ RIVER NEAR TERRACE'","BC","Canada",54.52,-128.73,378,"1961-01-01","1995-05-23",TRUE,33,8,11838,0,0,0.693301434546262,0.94058111850416,1,0.326543511964468,5,999.601882468499,0.90037,0.690384415584416,1.42174113856069,2,1982.51461140985,1.62411558349773
"CANOPEX","07EE009","'CHUCHINKA CREEK NEAR THE MOUTH'","BC","Canada",54.53,-122.6,318,"1975-06-06","2010-12-31",TRUE,36,5,12998,0,0,0.710447447638047,0.964018652579873,1,0.252250712746465,5,167.007537881239,0.16686,0.14264126984127,0.327787765419616,2,497.80817085183,1.42612880582174
"CANOPEX","08EE020","'TELKWA RIVER BELOW TSAI CREEK'","BC","Canada",54.6,-127.5,357,"1976-01-01","2010-12-31",TRUE,35,0,12784,0,0,0.695832980590794,0.994601796538469,2,0.209128460056262,5,572.294682222841,0.4477,0.393376734693878,0.507520552995392,3,1258.39628263758,1.59168083147447
"CANOPEX","06AC001","'JACKFISH CREEK NEAR LA COREY'","AB","Canada",54.44,-110.69,490,NA,NA,FALSE,0,NA,NA,NA,NA,NA,NA,NA,NA,NA,NA,NA,NA,NA,NA,NA,NA
"CANOPEX","08EG012","'EXCHAMSIKS RIVER NEAR TERRACE'","BC","Canada",54.36,-129.31,370,"1962-05-01","2010-12-31",TRUE,47,0,17046,0,0,0.688629611607407,0.912696367854367,2,0.359509317915763,5,1844.59124763127,1.3544,0.962077507598784,2.52457236335643,2,3691.48708223318,1.47556837790187
